{"type":"FeatureCollection","features":[{"type":"Feature","properties":{"name":"KABUL","parent":"23528373,NAVTEQ","officialNames":{"en":"KABUL"}},"geometry":{"type":"Point","coordinates":[69.12535,34.53155]},"id":"EM844412183,NAVTEQ"},{"type":"Feature","properties":{"name":"BACTRA","parent":"23528373,NAVTEQ","officialNames":{"en":"BACTRA"}},"geometry":{"type":"Point","coordinates":[66.89215,36.75252]},"id":"EM844397344,NAVTEQ"},{"type":"Feature","properties":{"name":"POL-E KHOMRI","parent":"23528373,NAVTEQ","officialNames":{"en":"POL-E KHOMRI"}},"geometry":{"type":"Point","coordinates":[68.71238,35.94606]},"id":"EM844409115,NAVTEQ"},{"type":"Feature","properties":{"name":"KUNDUZ","parent":"23528373,NAVTEQ","officialNames":{"en":"KUNDUZ"}},"geometry":{"type":"Point","coordinates":[68.8539,36.7312]},"id":"EM844395288,NAVTEQ"},{"type":"Feature","properties":{"name":"MAZAR-I-SHARIF","parent":"23528373,NAVTEQ","officialNames":{"en":"MAZAR-I-SHARIF"}},"geometry":{"type":"Point","coordinates":[67.11075,36.69767]},"id":"EM844446521,NAVTEQ"},{"type":"Feature","properties":{"name":"HERAT","parent":"23528373,NAVTEQ","officialNames":{"en":"HERAT"}},"geometry":{"type":"Point","coordinates":[62.18512,34.34376]},"id":"EM844438359,NAVTEQ"},{"type":"Feature","properties":{"name":"JELALABAD","parent":"23528373,NAVTEQ","officialNames":{"en":"JELALABAD"}},"geometry":{"type":"Point","coordinates":[70.44388,34.43804]},"id":"EM844422050,NAVTEQ"},{"type":"Feature","properties":{"name":"QALA SARKARIT","parent":"23528373,NAVTEQ","officialNames":{"en":"QALA SARKARIT"}},"geometry":{"type":"Point","coordinates":[67.80613,34.58008]},"id":"EM844386150,NAVTEQ"},{"type":"Feature","properties":{"name":"KANDAHAR","parent":"23528373,NAVTEQ","officialNames":{"en":"KANDAHAR"}},"geometry":{"type":"Point","coordinates":[65.6901,31.61159]},"id":"EM844410529,NAVTEQ"}]}