{"type":"FeatureCollection","features":[{"type":"Feature","properties":{"name":"Concordia","parent":"23294813,NAVTEQ","officialNames":{"es":"Concordia"}},"geometry":{"type":"Point","coordinates":[-58.01686,-31.38309]},"id":"C23293952,NAVTEQ"},{"type":"Feature","properties":{"name":"Rawson","parent":"23294221,NAVTEQ","officialNames":{"de":"Rawson","it":"Rawson","pt":"Rawson","fr":"Rawson","en":"Rawson","es":"Rawson","nl":"Rawson"}},"geometry":{"type":"Point","coordinates":[-65.10318,-43.29747]},"id":"C23294670,NAVTEQ"},{"type":"Feature","properties":{"name":"San Justo","parent":"23294306,NAVTEQ","officialNames":{"es":"San Justo"}},"geometry":{"type":"Point","coordinates":[-62.12646,-31.42379]},"id":"C23293917,NAVTEQ"},{"type":"Feature","properties":{"name":"Maipú","parent":"23294348,NAVTEQ","officialNames":{"es":"Maipú"}},"geometry":{"type":"Point","coordinates":[-68.78893,-32.98444]},"id":"C23670986,NAVTEQ"},{"type":"Feature","properties":{"name":"La Matanza","parent":"23293885,NAVTEQ","officialNames":{"es":"La Matanza"}},"geometry":{"type":"Point","coordinates":[-58.56779,-34.68963]},"id":"C23294222,NAVTEQ"},{"type":"Feature","properties":{"name":"Banda","parent":"23293860,NAVTEQ","officialNames":{"es":"Banda"}},"geometry":{"type":"Point","coordinates":[-64.25372,-27.74698]},"id":"C23294625,NAVTEQ"},{"type":"Feature","properties":{"name":"Merlo","parent":"23294600,NAVTEQ","officialNames":{"es":"Merlo"}},"geometry":{"type":"Point","coordinates":[-58.7084,-34.69332]},"id":"C23294370,NAVTEQ"},{"type":"Feature","properties":{"name":"Tandil","parent":"23294049,NAVTEQ","officialNames":{"es":"Tandil"}},"geometry":{"type":"Point","coordinates":[-59.1317,-37.33334]},"id":"C23753321,NAVTEQ"},{"type":"Feature","properties":{"name":"Corrientes","parent":"23294812,NAVTEQ","officialNames":{"de":"Corrientes","it":"Corrientes","pt":"Corrientes","fr":"Corrientes","en":"Corrientes","es":"Corrientes","nl":"Corrientes"}},"geometry":{"type":"Point","coordinates":[-58.84018,-27.47059]},"id":"C23671016,NAVTEQ"},{"type":"Feature","properties":{"name":"Lomas de Zamora","parent":"23294946,NAVTEQ","officialNames":{"es":"Lomas de Zamora"}},"geometry":{"type":"Point","coordinates":[-58.41443,-34.74266]},"id":"C23293994,NAVTEQ"},{"type":"Feature","properties":{"name":"Córdoba","parent":"23382704,NAVTEQ","officialNames":{"de":"Cordoba","it":"Cordoba","pt":"Cordoba","fr":"Cordoba","en":"Cordoba","es":"Córdoba","nl":"Cordoba"}},"geometry":{"type":"Point","coordinates":[-64.18567,-31.40716]},"id":"C23382694,NAVTEQ"},{"type":"Feature","properties":{"name":"San Miguel de Tucumán","parent":"23671029,NAVTEQ","officialNames":{"es":"San Miguel de Tucumán"}},"geometry":{"type":"Point","coordinates":[-65.21046,-26.82774]},"id":"C23671102,NAVTEQ"},{"type":"Feature","properties":{"name":"Neuquén","parent":"23492582,NAVTEQ","officialNames":{"de":"Neuquen","it":"Neuquen","pt":"Neuquen","fr":"Neuquen","en":"Neuquen","es":"Neuquén","nl":"Neuquen"}},"geometry":{"type":"Point","coordinates":[-68.06074,-38.95128]},"id":"C23492547,NAVTEQ"},{"type":"Feature","properties":{"name":"Salta","parent":"23294217,NAVTEQ","officialNames":{"de":"Salta","it":"Salta","pt":"Salta","fr":"Salta","en":"Salta","es":"Salta","nl":"Salta"}},"geometry":{"type":"Point","coordinates":[-65.41026,-24.78859]},"id":"C23694564,NAVTEQ"},{"type":"Feature","properties":{"name":"Malvinas Argentinas","parent":"23294680,NAVTEQ","officialNames":{"es":"Malvinas Argentinas"}},"geometry":{"type":"Point","coordinates":[-58.71355,-34.48447]},"id":"C23294477,NAVTEQ"},{"type":"Feature","properties":{"name":"Vicente López","parent":"23294766,NAVTEQ","officialNames":{"es":"Vicente López"}},"geometry":{"type":"Point","coordinates":[-58.47428,-34.52286]},"id":"C23294473,NAVTEQ"},{"type":"Feature","properties":{"name":"San Juan","parent":"23670977,NAVTEQ","officialNames":{"es":"San Juan"}},"geometry":{"type":"Point","coordinates":[-68.51424,-31.53344]},"id":"C23671063,NAVTEQ"},{"type":"Feature","properties":{"name":"Castellanos","parent":"23293898,NAVTEQ","officialNames":{"es":"Castellanos"}},"geometry":{"type":"Point","coordinates":[-61.50292,-31.25102]},"id":"C23294859,NAVTEQ"},{"type":"Feature","properties":{"name":"San Fernando","parent":"23294878,NAVTEQ","officialNames":{"es":"San Fernando"}},"geometry":{"type":"Point","coordinates":[-58.56641,-34.45781]},"id":"C23294236,NAVTEQ"},{"type":"Feature","properties":{"name":"San Isidro","parent":"23294276,NAVTEQ","officialNames":{"es":"San Isidro"}},"geometry":{"type":"Point","coordinates":[-58.51468,-34.47166]},"id":"C23294521,NAVTEQ"},{"type":"Feature","properties":{"name":"Santa Rosa","parent":"23492588,NAVTEQ","officialNames":{"de":"Santa Rosa","it":"Santa Rosa","pt":"Santa Rosa","fr":"Santa Rosa","en":"Santa Rosa","es":"Santa Rosa","nl":"Santa Rosa"}},"geometry":{"type":"Point","coordinates":[-64.29251,-36.62039]},"id":"C23492516,NAVTEQ"},{"type":"Feature","properties":{"name":"San Rafael","parent":"23294885,NAVTEQ","officialNames":{"es":"San Rafael"}},"geometry":{"type":"Point","coordinates":[-68.32562,-34.61761]},"id":"C23670999,NAVTEQ"},{"type":"Feature","properties":{"name":"Resistencia","parent":"23492563,NAVTEQ","officialNames":{"de":"Resistencia","it":"Resistencia","pt":"Resistencia","fr":"Resistencia","en":"Resistencia","es":"Resistencia","nl":"Resistencia"}},"geometry":{"type":"Point","coordinates":[-58.98785,-27.45154]},"id":"C23492590,NAVTEQ"},{"type":"Feature","properties":{"name":"Posadas","parent":"23294648,NAVTEQ","officialNames":{"de":"Posadas","it":"Posadas","pt":"Posadas","fr":"Posadas","en":"Posadas","es":"Posadas","nl":"Posadas"}},"geometry":{"type":"Point","coordinates":[-55.89249,-27.36663]},"id":"C23671024,NAVTEQ"},{"type":"Feature","properties":{"name":"General San Martín","parent":"23294306,NAVTEQ","officialNames":{"es":"General San Martín"}},"geometry":{"type":"Point","coordinates":[-63.31235,-32.428]},"id":"C23294564,NAVTEQ"},{"type":"Feature","properties":{"name":"Cruz Alta","parent":"23294106,NAVTEQ","officialNames":{"es":"Cruz Alta"}},"geometry":{"type":"Point","coordinates":[-65.11629,-26.85578]},"id":"C23294569,NAVTEQ"},{"type":"Feature","properties":{"name":"Zárate","parent":"23294768,NAVTEQ","officialNames":{"es":"Zárate"}},"geometry":{"type":"Point","coordinates":[-59.02563,-34.10575]},"id":"C23753684,NAVTEQ"},{"type":"Feature","properties":{"name":"San Martín","parent":"23294707,NAVTEQ","officialNames":{"es":"San Martín"}},"geometry":{"type":"Point","coordinates":[-68.46832,-33.08485]},"id":"C23294745,NAVTEQ"},{"type":"Feature","properties":{"name":"Lanús","parent":"23294132,NAVTEQ","officialNames":{"es":"Lanús"}},"geometry":{"type":"Point","coordinates":[-58.38478,-34.6999]},"id":"C23294664,NAVTEQ"},{"type":"Feature","properties":{"name":"Berazategui","parent":"23294663,NAVTEQ","officialNames":{"es":"Berazategui"}},"geometry":{"type":"Point","coordinates":[-58.22339,-34.77928]},"id":"C23293863,NAVTEQ"},{"type":"Feature","properties":{"name":"Ezeiza","parent":"23294787,NAVTEQ","officialNames":{"es":"Ezeiza"}},"geometry":{"type":"Point","coordinates":[-58.5239,-34.8679]},"id":"C23294036,NAVTEQ"},{"type":"Feature","properties":{"name":"San Fernando del Valle de Catamarca","parent":"23293872,NAVTEQ","officialNames":{"de":"San Fernando del Valle de Catamarca","it":"San Fernando del Valle De Catamarca","pt":"San Fernando del Valle de Catamarca","fr":"San Fernando del Valle de Catamarca","en":"San Fernando del Valle de Catamarca","es":"San Fernando del Valle de Catamarca","nl":"San Fernando del Valle de Catamarca"}},"geometry":{"type":"Point","coordinates":[-65.78534,-28.48736]},"id":"C23753686,NAVTEQ"},{"type":"Feature","properties":{"name":"Punilla","parent":"23294306,NAVTEQ","officialNames":{"es":"Punilla"}},"geometry":{"type":"Point","coordinates":[-64.55636,-31.483]},"id":"C23293865,NAVTEQ"},{"type":"Feature","properties":{"name":"General San Martín","parent":"23294462,NAVTEQ","officialNames":{"es":"General San Martín"}},"geometry":{"type":"Point","coordinates":[-58.55714,-34.55436]},"id":"C23294275,NAVTEQ"},{"type":"Feature","properties":{"name":"La Rioja","parent":"23670975,NAVTEQ","officialNames":{"es":"La Rioja"}},"geometry":{"type":"Point","coordinates":[-66.85584,-29.41334]},"id":"C23671099,NAVTEQ"},{"type":"Feature","properties":{"name":"Tigre","parent":"23294598,NAVTEQ","officialNames":{"es":"Tigre"}},"geometry":{"type":"Point","coordinates":[-58.58625,-34.42572]},"id":"C23294808,NAVTEQ"},{"type":"Feature","properties":{"name":"General José de San Martín","parent":"23294294,NAVTEQ","officialNames":{"es":"General José de San Martín"}},"geometry":{"type":"Point","coordinates":[-63.75903,-22.51099]},"id":"C23294747,NAVTEQ"},{"type":"Feature","properties":{"name":"Colón","parent":"23294306,NAVTEQ","officialNames":{"es":"Colón"}},"geometry":{"type":"Point","coordinates":[-64.1476,-31.16173]},"id":"C23294271,NAVTEQ"},{"type":"Feature","properties":{"name":"San Salvador de Jujuy","parent":"23294009,NAVTEQ","officialNames":{"de":"San Salvador de Jujuy","it":"San Salvador De Jujuy","pt":"San Salvador de Jujuy","fr":"San Salvador de Jujuy","en":"San Salvador de Jujuy","es":"San Salvador de Jujuy","nl":"San Salvador de Jujuy"}},"geometry":{"type":"Point","coordinates":[-65.29787,-24.18426]},"id":"C23930640,NAVTEQ"},{"type":"Feature","properties":{"name":"Florencio Varela","parent":"23293966,NAVTEQ","officialNames":{"es":"Florencio Varela"}},"geometry":{"type":"Point","coordinates":[-58.27807,-34.80751]},"id":"C23294802,NAVTEQ"},{"type":"Feature","properties":{"name":"Escalante","parent":"23294221,NAVTEQ","officialNames":{"es":"Escalante"}},"geometry":{"type":"Point","coordinates":[-67.89773,-45.77224]},"id":"C23294425,NAVTEQ"},{"type":"Feature","properties":{"name":"Mar del Plata","parent":"23294481,NAVTEQ","officialNames":{"es":"Mar del Plata"}},"geometry":{"type":"Point","coordinates":[-57.56954,-38.03516]},"id":"C23382713,NAVTEQ"},{"type":"Feature","properties":{"name":"La Plata","parent":"23382735,NAVTEQ","officialNames":{"de":"La Plata","it":"La Plata","pt":"La Plata","fr":"La Plata","en":"La Plata","es":"La Plata","nl":"La Plata"}},"geometry":{"type":"Point","coordinates":[-57.94633,-34.91389]},"id":"C23382767,NAVTEQ"},{"type":"Feature","properties":{"name":"Morón","parent":"23294912,NAVTEQ","officialNames":{"es":"Morón"}},"geometry":{"type":"Point","coordinates":[-58.61812,-34.6459]},"id":"C23294708,NAVTEQ"},{"type":"Feature","properties":{"name":"General López","parent":"23293898,NAVTEQ","officialNames":{"es":"General López"}},"geometry":{"type":"Point","coordinates":[-61.96822,-33.74441]},"id":"C23294278,NAVTEQ"},{"type":"Feature","properties":{"name":"Moreno","parent":"23294176,NAVTEQ","officialNames":{"es":"Moreno"}},"geometry":{"type":"Point","coordinates":[-58.78066,-34.62989]},"id":"C23294202,NAVTEQ"},{"type":"Feature","properties":{"name":"Bahía Blanca","parent":"23294550,NAVTEQ","officialNames":{"es":"Bahía Blanca"}},"geometry":{"type":"Point","coordinates":[-62.26788,-38.71955]},"id":"C23382738,NAVTEQ"},{"type":"Feature","properties":{"name":"General Obligado","parent":"23293898,NAVTEQ","officialNames":{"es":"General Obligado"}},"geometry":{"type":"Point","coordinates":[-59.26608,-28.37848]},"id":"C23293871,NAVTEQ"},{"type":"Feature","properties":{"name":"Olavarría","parent":"23294780,NAVTEQ","officialNames":{"es":"Olavarría"}},"geometry":{"type":"Point","coordinates":[-60.30998,-36.89234]},"id":"C23294552,NAVTEQ"},{"type":"Feature","properties":{"name":"San Miguel","parent":"23294615,NAVTEQ","officialNames":{"es":"San Miguel"}},"geometry":{"type":"Point","coordinates":[-58.71666,-34.55504]},"id":"C23294937,NAVTEQ"},{"type":"Feature","properties":{"name":"Santa Fe","parent":"23294896,NAVTEQ","officialNames":{"de":"Santa Fe","it":"Santa Fe","pt":"Santa Fe","fr":"Santa Fe","en":"Santa Fe","es":"Santa Fe","nl":"Santa Fe"}},"geometry":{"type":"Point","coordinates":[-60.712,-31.63666]},"id":"C23697224,NAVTEQ"},{"type":"Feature","properties":{"name":"Hurlingham","parent":"23294796,NAVTEQ","officialNames":{"es":"Hurlingham"}},"geometry":{"type":"Point","coordinates":[-58.63621,-34.59339]},"id":"C23294609,NAVTEQ"},{"type":"Feature","properties":{"name":"Ituzaingó","parent":"23294197,NAVTEQ","officialNames":{"es":"Ituzaingó"}},"geometry":{"type":"Point","coordinates":[-58.68143,-34.63569]},"id":"C23294102,NAVTEQ"},{"type":"Feature","properties":{"name":"Unión","parent":"23294306,NAVTEQ","officialNames":{"es":"Unión"}},"geometry":{"type":"Point","coordinates":[-62.71066,-32.60847]},"id":"C23294657,NAVTEQ"},{"type":"Feature","properties":{"name":"Santiago del Estero","parent":"23492578,NAVTEQ","officialNames":{"de":"Santiago del Estero","it":"Santiago del Estero","pt":"Santiago del Estero","fr":"Santiago del Estero","en":"Santiago del Estero","es":"Santiago del Estero","nl":"Santiago del Estero"}},"geometry":{"type":"Point","coordinates":[-64.26122,-27.80532]},"id":"C23492522,NAVTEQ"},{"type":"Feature","properties":{"name":"General Roca","parent":"23294050,NAVTEQ","officialNames":{"es":"General Roca"}},"geometry":{"type":"Point","coordinates":[-67.57591,-39.02887]},"id":"C23831004,NAVTEQ"},{"type":"Feature","properties":{"name":"Mendoza","parent":"23382750,NAVTEQ","officialNames":{"de":"Mendoza","it":"Mendoza","pt":"Mendoza","fr":"Mendoza","en":"Mendoza","es":"Mendoza","nl":"Mendoza"}},"geometry":{"type":"Point","coordinates":[-68.83955,-32.89123]},"id":"C23382776,NAVTEQ"},{"type":"Feature","properties":{"name":"San Luis","parent":"23294777,NAVTEQ","officialNames":{"de":"San Luis","it":"San Luis","pt":"San Luis","fr":"San Luis","en":"San Luis","es":"San Luis","nl":"San Luis"}},"geometry":{"type":"Point","coordinates":[-66.33761,-33.30214]},"id":"C23671086,NAVTEQ"},{"type":"Feature","properties":{"name":"Esteban Echeverría","parent":"23294941,NAVTEQ","officialNames":{"es":"Esteban Echeverría"}},"geometry":{"type":"Point","coordinates":[-58.46821,-34.83631]},"id":"C23294143,NAVTEQ"},{"type":"Feature","properties":{"name":"Orán","parent":"23294294,NAVTEQ","officialNames":{"es":"Orán"}},"geometry":{"type":"Point","coordinates":[-64.22414,-23.30817]},"id":"C23294359,NAVTEQ"},{"type":"Feature","properties":{"name":"José C. Paz","parent":"23294793,NAVTEQ","officialNames":{"es":"José C. Paz"}},"geometry":{"type":"Point","coordinates":[-58.78124,-34.50555]},"id":"C23293879,NAVTEQ"},{"type":"Feature","properties":{"name":"Ciudad de Buenos Aires","parent":"23294969,NAVTEQ","officialNames":{"de":"Buenos Aires Stadt","it":"Città di Buenos Aires","pt":"Cidade de Buenos Aires","fr":"Ville de Buenos Aires","en":"Buenos Aires City","es":"Ciudad de Buenos Aires","nl":"Stad van Buenos Aires"}},"geometry":{"type":"Point","coordinates":[-58.37354,-34.60852]},"id":"C23294353,NAVTEQ"},{"type":"Feature","properties":{"name":"3 de Febrero","parent":"23294243,NAVTEQ","officialNames":{"es":"3 de Febrero"}},"geometry":{"type":"Point","coordinates":[-58.56436,-34.60579]},"id":"C23294862,NAVTEQ"},{"type":"Feature","properties":{"name":"Rosario","parent":"23294915,NAVTEQ","officialNames":{"es":"Rosario"}},"geometry":{"type":"Point","coordinates":[-60.65924,-32.9678]},"id":"C23382749,NAVTEQ"},{"type":"Feature","properties":{"name":"General Pedernera","parent":"23294245,NAVTEQ","officialNames":{"es":"General Pedernera"}},"geometry":{"type":"Point","coordinates":[-65.46203,-33.67545]},"id":"C23294683,NAVTEQ"},{"type":"Feature","properties":{"name":"Formosa","parent":"23294571,NAVTEQ","officialNames":{"de":"Formosa","it":"Formosa","pt":"Formosa","fr":"Formosa","en":"Formosa","es":"Formosa","nl":"Formosa"}},"geometry":{"type":"Point","coordinates":[-58.20128,-26.16703]},"id":"C23671040,NAVTEQ"},{"type":"Feature","properties":{"name":"Tercero Arriba","parent":"23294306,NAVTEQ","officialNames":{"es":"Tercero Arriba"}},"geometry":{"type":"Point","coordinates":[-64.10969,-32.17095]},"id":"C23294483,NAVTEQ"},{"type":"Feature","properties":{"name":"Ushuaia","parent":"23294897,NAVTEQ","officialNames":{"de":"Ushuaia","it":"Ushuaia","pt":"Ushuaia","fr":"Ushuaia","en":"Ushuaia","es":"Ushuaia","nl":"Ushuaia"}},"geometry":{"type":"Point","coordinates":[-68.33263,-54.80807]},"id":"C23836528,NAVTEQ"},{"type":"Feature","properties":{"name":"San Nicolás","parent":"23294780,NAVTEQ","officialNames":{"es":"San Nicolás"}},"geometry":{"type":"Point","coordinates":[-60.2231,-33.34581]},"id":"C23294519,NAVTEQ"},{"type":"Feature","properties":{"name":"Quilmes","parent":"23294252,NAVTEQ","officialNames":{"es":"Quilmes"}},"geometry":{"type":"Point","coordinates":[-58.27273,-34.73853]},"id":"C23293985,NAVTEQ"},{"type":"Feature","properties":{"name":"Río Cuarto","parent":"23294908,NAVTEQ","officialNames":{"es":"Río Cuarto"}},"geometry":{"type":"Point","coordinates":[-64.36741,-33.13127]},"id":"C23755879,NAVTEQ"},{"type":"Feature","properties":{"name":"Rawson","parent":"23671034,NAVTEQ","officialNames":{"es":"Rawson"}},"geometry":{"type":"Point","coordinates":[-68.53259,-31.56678]},"id":"C23671083,NAVTEQ"},{"type":"Feature","properties":{"name":"Pilar","parent":"23382702,NAVTEQ","officialNames":{"es":"Pilar"}},"geometry":{"type":"Point","coordinates":[-58.9153,-34.45934]},"id":"C23382688,NAVTEQ"},{"type":"Feature","properties":{"name":"Almirante Brown","parent":"23294340,NAVTEQ","officialNames":{"es":"Almirante Brown"}},"geometry":{"type":"Point","coordinates":[-58.38875,-34.79853]},"id":"C23294117,NAVTEQ"},{"type":"Feature","properties":{"name":"Viedma","parent":"23294104,NAVTEQ","officialNames":{"de":"Viedma","it":"Viedma","pt":"Viedma","fr":"Viedma","en":"Viedma","es":"Viedma","nl":"Viedma"}},"geometry":{"type":"Point","coordinates":[-62.99406,-40.80816]},"id":"C23322103,NAVTEQ"},{"type":"Feature","properties":{"name":"Luján de Cuyo","parent":"23294436,NAVTEQ","officialNames":{"es":"Luján de Cuyo"}},"geometry":{"type":"Point","coordinates":[-68.87809,-33.03398]},"id":"C23671049,NAVTEQ"},{"type":"Feature","properties":{"name":"Rio Gallegos","parent":"23294182,NAVTEQ","officialNames":{"de":"Rio Gallegos","it":"Rio Gallegos","pt":"Rio Gallegos","fr":"Rio Gallegos","en":"Rio Gallegos","es":"Rio Gallegos","nl":"Rio Gallegos"}},"geometry":{"type":"Point","coordinates":[-69.21539,-51.62279]},"id":"C23322104,NAVTEQ"},{"type":"Feature","properties":{"name":"Escobar","parent":"23294780,NAVTEQ","officialNames":{"es":"Escobar"}},"geometry":{"type":"Point","coordinates":[-58.79112,-34.34961]},"id":"C23294303,NAVTEQ"},{"type":"Feature","properties":{"name":"Paraná","parent":"23492529,NAVTEQ","officialNames":{"de":"Parana","it":"Parana","pt":"Parana","fr":"Parana","en":"Parana","es":"Paraná","nl":"Parana"}},"geometry":{"type":"Point","coordinates":[-60.53143,-31.72629]},"id":"C23492531,NAVTEQ"},{"type":"Feature","properties":{"name":"Avellaneda","parent":"23294191,NAVTEQ","officialNames":{"es":"Avellaneda"}},"geometry":{"type":"Point","coordinates":[-58.34406,-34.68213]},"id":"C23294776,NAVTEQ"},{"type":"Feature","properties":{"name":"Tafí Viejo","parent":"23294728,NAVTEQ","officialNames":{"es":"Tafí Viejo"}},"geometry":{"type":"Point","coordinates":[-65.2594,-26.73978]},"id":"C23836534,NAVTEQ"}]}