{"type":"FeatureCollection","features":[{"type":"Feature","properties":{"name":"Смолян","parent":"23718611,NAVTEQ","officialNames":{"bg":"Смолян"}},"geometry":{"type":"Point","coordinates":[24.70834,41.57782]},"id":"C23720405,NAVTEQ"},{"type":"Feature","properties":{"name":"Разград","parent":"23718556,NAVTEQ","officialNames":{"bg":"Разград"}},"geometry":{"type":"Point","coordinates":[26.52437,43.52774]},"id":"C23720443,NAVTEQ"},{"type":"Feature","properties":{"name":"Русе","parent":"23718503,NAVTEQ","officialNames":{"sk":"Ruse","da":"Ruse","it":"Ruse","no":"Ruse","hu":"Rusze","de":"Russe","el":"Ρουσε","pt":"Ruse","pl":"Ruse","fr":"Roussé","sv":"Ruse","bg":"Русе","en":"Ruse","ru":"Русе","es":"Ruse","nl":"Roese"}},"geometry":{"type":"Point","coordinates":[25.95729,43.83492]},"id":"C23718358,NAVTEQ"},{"type":"Feature","properties":{"name":"Плевен","parent":"23718451,NAVTEQ","officialNames":{"sk":"Pleven","da":"Pleven","it":"Pleven","no":"Pleven","hu":"Pleven","de":"Plewen","el":"Πλεβεν","pt":"Pleven","pl":"Plewen","fr":"Pleven","sv":"Pleven","bg":"Плевен","en":"Pleven","ru":"Плевен","es":"Pleven"}},"geometry":{"type":"Point","coordinates":[24.62112,43.40726]},"id":"C23719267,NAVTEQ"},{"type":"Feature","properties":{"name":"Пазарджик","parent":"23718479,NAVTEQ","officialNames":{"bg":"Пазарджик"}},"geometry":{"type":"Point","coordinates":[24.33196,42.18875]},"id":"C23719911,NAVTEQ"},{"type":"Feature","properties":{"name":"Габрово","parent":"23719355,NAVTEQ","officialNames":{"bg":"Габрово"}},"geometry":{"type":"Point","coordinates":[25.31988,42.88704]},"id":"C23721089,NAVTEQ"},{"type":"Feature","properties":{"name":"Сливен","parent":"23718531,NAVTEQ","officialNames":{"sk":"Sliven","da":"Sliven","it":"Sliven","no":"Sliven","hu":"Szliven","de":"Sliwen","el":"Σλιβεν","pt":"Sliven","pl":"Sliwen","fr":"Sliven","sv":"Sliven","bg":"Сливен","en":"Sliven","ru":"Сливен","es":"Sliven"}},"geometry":{"type":"Point","coordinates":[26.33143,42.67496]},"id":"C23718746,NAVTEQ"},{"type":"Feature","properties":{"name":"Видин","parent":"23719306,NAVTEQ","officialNames":{"bg":"Видин"}},"geometry":{"type":"Point","coordinates":[22.87121,43.99123]},"id":"C23717430,NAVTEQ"},{"type":"Feature","properties":{"name":"София","parent":"20665318,NAVTEQ","officialNames":{"sk":"Sofia","da":"Sofia","ro":"Sofia","it":"Sofia","no":"Sofia","hu":"Szófia","lv":"Sofija","lt":"Sofija","cs":"Sofie","de":"Sofia","el":"Σοφια","fi":"Sofija","pl":"Sofia","pt":"Sófia","bg":"София","sv":"Sofia","fr":"Sofia","en":"Sofia","ru":"София","et":"Sofia","es":"Sofía","nl":"Sofia"}},"geometry":{"type":"Point","coordinates":[23.32435,42.69716]},"id":"C20665319,NAVTEQ"},{"type":"Feature","properties":{"name":"Хасково","parent":"23719369,NAVTEQ","officialNames":{"bg":"Хасково"}},"geometry":{"type":"Point","coordinates":[25.55248,41.93232]},"id":"C23720837,NAVTEQ"},{"type":"Feature","properties":{"name":"Силистра","parent":"23718528,NAVTEQ","officialNames":{"bg":"Силистра"}},"geometry":{"type":"Point","coordinates":[27.24716,44.10956]},"id":"C23721430,NAVTEQ"},{"type":"Feature","properties":{"name":"Кюстендил","parent":"23719351,NAVTEQ","officialNames":{"bg":"Кюстендил"}},"geometry":{"type":"Point","coordinates":[22.68995,42.28415]},"id":"C23717804,NAVTEQ"},{"type":"Feature","properties":{"name":"Стара Загора","parent":"23719280,NAVTEQ","officialNames":{"sk":"Stara Zagora","da":"Stara Zagora","it":"Stara Zagora","no":"Stara Zagora","hu":"Sztara Zagora","de":"Stara Sagora","el":"Σταρα Ζαγορα","pt":"Stara Zagora","pl":"Stara Zagora","fr":"Stara Zagora","sv":"Stara Zagora","bg":"Стара Загора","en":"Stara Zagora","ru":"Стара-Загора","es":"Ztara Zagora"}},"geometry":{"type":"Point","coordinates":[25.63553,42.42251]},"id":"C23717265,NAVTEQ"},{"type":"Feature","properties":{"name":"Шумен","parent":"23718540,NAVTEQ","officialNames":{"bg":"Шумен"}},"geometry":{"type":"Point","coordinates":[26.94218,43.26386]},"id":"C23719714,NAVTEQ"},{"type":"Feature","properties":{"name":"Враца","parent":"23719237,NAVTEQ","officialNames":{"bg":"Враца"}},"geometry":{"type":"Point","coordinates":[23.54959,43.20013]},"id":"C23719581,NAVTEQ"},{"type":"Feature","properties":{"name":"Кърджали","parent":"23719373,NAVTEQ","officialNames":{"bg":"Кърджали"}},"geometry":{"type":"Point","coordinates":[25.37634,41.63856]},"id":"C23720511,NAVTEQ"},{"type":"Feature","properties":{"name":"Добрич","parent":"23719347,NAVTEQ","officialNames":{"bg":"Добрич"}},"geometry":{"type":"Point","coordinates":[27.83024,43.57631]},"id":"C23720888,NAVTEQ"},{"type":"Feature","properties":{"name":"Ловеч","parent":"23718493,NAVTEQ","officialNames":{"bg":"Ловеч"}},"geometry":{"type":"Point","coordinates":[24.71329,43.14571]},"id":"C23720686,NAVTEQ"},{"type":"Feature","properties":{"name":"Търговище","parent":"23719290,NAVTEQ","officialNames":{"bg":"Търговище"}},"geometry":{"type":"Point","coordinates":[26.56368,43.26194]},"id":"C23721204,NAVTEQ"},{"type":"Feature","properties":{"name":"Ямбол","parent":"23719360,NAVTEQ","officialNames":{"bg":"Ямбол"}},"geometry":{"type":"Point","coordinates":[26.51096,42.48774]},"id":"C23717353,NAVTEQ"},{"type":"Feature","properties":{"name":"Перник","parent":"23718452,NAVTEQ","officialNames":{"bg":"Перник"}},"geometry":{"type":"Point","coordinates":[23.03702,42.60966]},"id":"C23717309,NAVTEQ"},{"type":"Feature","properties":{"name":"Монтана","parent":"23718471,NAVTEQ","officialNames":{"bg":"Монтана"}},"geometry":{"type":"Point","coordinates":[23.22231,43.42515]},"id":"C23720943,NAVTEQ"},{"type":"Feature","properties":{"name":"Велико Търново","parent":"23719328,NAVTEQ","officialNames":{"sk":"Veliko Tarnovo","da":"Veliko Tarnovo","it":"Veliko Tarnovo","no":"Veliko Turnovo","hu":"Veliko Trnovo","de":"Weliko Tarnowo","el":"Βελικο Ταρνοβο","pt":"Veliko Turnovo","pl":"Wielkie Tarnowo","fr":"Veliko Tarnovo","sv":"Veliko Tarnovo","bg":"Велико Търново","en":"Veliko Tarnovo","ru":"Велико-Тырново","es":"Veliko Tarnovo","nl":"Veliko Turnovo"}},"geometry":{"type":"Point","coordinates":[25.63204,43.08214]},"id":"C23720337,NAVTEQ"},{"type":"Feature","properties":{"name":"Варна","parent":"20665518,NAVTEQ","officialNames":{"sk":"Varna","da":"Varna","it":"Varna","no":"Varna","hu":"Várna","de":"Warna","el":"Βαρνα","pt":"Varna","pl":"Warna","fr":"Varna","sv":"Varna","bg":"Варна","en":"Varna","ru":"Варна","es":"Varna"}},"geometry":{"type":"Point","coordinates":[27.9131,43.20841]},"id":"C20665522,NAVTEQ"},{"type":"Feature","properties":{"name":"Пловдив","parent":"23718455,NAVTEQ","officialNames":{"sk":"Plovdiv","da":"Plovdiv","it":"Filippoli","no":"Plovdiv","hu":"Plovdiv","de":"Plowdiw","el":"Πλοβντιβ","pt":"Plovdin","pl":"Płowdiw","fr":"Plovdiv","sv":"Plovdiv","bg":"Пловдив","en":"Plovdiv","ru":"Пловдив","es":"Plovdiv"}},"geometry":{"type":"Point","coordinates":[24.74829,42.13573]},"id":"C23719244,NAVTEQ"},{"type":"Feature","properties":{"name":"Бургас","parent":"20664221,NAVTEQ","officialNames":{"sk":"Burgas","da":"Burgas","it":"Burgas","no":"Burgas","hu":"Burgasz","el":"Μπουργκας","pt":"Burgas","pl":"Burgas","fr":"Bourgas","sv":"Burgas","bg":"Бургас","en":"Burgas","ru":"Бургас","es":"Burgas","nl":"Boergas"}},"geometry":{"type":"Point","coordinates":[27.47178,42.49153]},"id":"C23717399,NAVTEQ"},{"type":"Feature","properties":{"name":"Благоевград","parent":"23719437,NAVTEQ","officialNames":{"bg":"Благоевград"}},"geometry":{"type":"Point","coordinates":[23.08975,42.00551]},"id":"C23720035,NAVTEQ"}]}