{"type":"FeatureCollection","features":[{"type":"Feature","properties":{"name":"Contagem","parent":"23031641,NAVTEQ","officialNames":{"pt":"Contagem"}},"geometry":{"type":"Point","coordinates":[-44.02671,-19.9644]},"id":"C23039254,NAVTEQ"},{"type":"Feature","properties":{"name":"Manaus","parent":"23028906,NAVTEQ","officialNames":{"pt":"Manaus"}},"geometry":{"type":"Point","coordinates":[-60.02065,-3.12389]},"id":"C23029928,NAVTEQ"},{"type":"Feature","properties":{"name":"Mogi das Cruzes","parent":"23034706,NAVTEQ","officialNames":{"pt":"Mogi das Cruzes"}},"geometry":{"type":"Point","coordinates":[-46.18714,-23.52452]},"id":"C23492507,NAVTEQ"},{"type":"Feature","properties":{"name":"Itu","parent":"23034706,NAVTEQ","officialNames":{"pt":"Itu"}},"geometry":{"type":"Point","coordinates":[-47.29921,-23.26562]},"id":"C23582068,NAVTEQ"},{"type":"Feature","properties":{"name":"São Vicente","parent":"23034706,NAVTEQ","officialNames":{"pt":"São Vicente"}},"geometry":{"type":"Point","coordinates":[-46.39802,-23.95064]},"id":"C23039525,NAVTEQ"},{"type":"Feature","properties":{"name":"Conselheiro Lafaiete","parent":"23031641,NAVTEQ","officialNames":{"pt":"Conselheiro Lafaiete"}},"geometry":{"type":"Point","coordinates":[-43.7856,-20.65974]},"id":"C23902194,NAVTEQ"},{"type":"Feature","properties":{"name":"Teófilo Otoni","parent":"23031641,NAVTEQ","officialNames":{"pt":"Teófilo Otoni"}},"geometry":{"type":"Point","coordinates":[-41.51114,-17.85201]},"id":"C23492788,NAVTEQ"},{"type":"Feature","properties":{"name":"Viamão","parent":"23034895,NAVTEQ","officialNames":{"pt":"Viamão"}},"geometry":{"type":"Point","coordinates":[-51.02318,-30.08845]},"id":"C23527592,NAVTEQ"},{"type":"Feature","properties":{"name":"Belo Horizonte","parent":"23031641,NAVTEQ","officialNames":{"pt":"Belo Horizonte"}},"geometry":{"type":"Point","coordinates":[-43.93269,-19.94536]},"id":"C23039345,NAVTEQ"},{"type":"Feature","properties":{"name":"Pouso Alegre","parent":"23031641,NAVTEQ","officialNames":{"pt":"Pouso Alegre"}},"geometry":{"type":"Point","coordinates":[-45.93368,-22.23444]},"id":"C23902199,NAVTEQ"},{"type":"Feature","properties":{"name":"Recife","parent":"23029200,NAVTEQ","officialNames":{"pt":"Recife"}},"geometry":{"type":"Point","coordinates":[-34.872,-8.05538]},"id":"C23528111,NAVTEQ"},{"type":"Feature","properties":{"name":"Águas Lindas de Goiás","parent":"23037322,NAVTEQ","officialNames":{"pt":"Águas Lindas de Goiás"}},"geometry":{"type":"Point","coordinates":[-48.26695,-15.73268]},"id":"C23774936,NAVTEQ"},{"type":"Feature","properties":{"name":"Sete Lagoas","parent":"23031641,NAVTEQ","officialNames":{"pt":"Sete Lagoas"}},"geometry":{"type":"Point","coordinates":[-44.24809,-19.4677]},"id":"C23664351,NAVTEQ"},{"type":"Feature","properties":{"name":"Rio Grande","parent":"23034895,NAVTEQ","officialNames":{"pt":"Rio Grande"}},"geometry":{"type":"Point","coordinates":[-52.09814,-32.03315]},"id":"C23369934,NAVTEQ"},{"type":"Feature","properties":{"name":"Vila Velha","parent":"23029204,NAVTEQ","officialNames":{"pt":"Vila Velha"}},"geometry":{"type":"Point","coordinates":[-40.29194,-20.3305]},"id":"C23332782,NAVTEQ"},{"type":"Feature","properties":{"name":"São Caetano do sul","parent":"23034706,NAVTEQ","officialNames":{"pt":"São Caetano do sul"}},"geometry":{"type":"Point","coordinates":[-46.57215,-23.60632]},"id":"C23039350,NAVTEQ"},{"type":"Feature","properties":{"name":"Chapecó","parent":"23034894,NAVTEQ","officialNames":{"pt":"Chapecó"}},"geometry":{"type":"Point","coordinates":[-52.68075,-27.09656]},"id":"C23039036,NAVTEQ"},{"type":"Feature","properties":{"name":"Araucária","parent":"23034893,NAVTEQ","officialNames":{"pt":"Araucária"}},"geometry":{"type":"Point","coordinates":[-49.39791,-25.5782]},"id":"C23034917,NAVTEQ"},{"type":"Feature","properties":{"name":"Santa Luzia","parent":"23029195,NAVTEQ","officialNames":{"pt":"Santa Luzia"}},"geometry":{"type":"Point","coordinates":[-45.66203,-3.96896]},"id":"C23384415,NAVTEQ"},{"type":"Feature","properties":{"name":"Curitiba","parent":"23034893,NAVTEQ","officialNames":{"pt":"Curitiba"}},"geometry":{"type":"Point","coordinates":[-49.27672,-25.44003]},"id":"C23035247,NAVTEQ"},{"type":"Feature","properties":{"name":"Rondonópolis","parent":"23037321,NAVTEQ","officialNames":{"pt":"Rondonópolis"}},"geometry":{"type":"Point","coordinates":[-54.62235,-16.46587]},"id":"C23381572,NAVTEQ"},{"type":"Feature","properties":{"name":"Macapá","parent":"23028909,NAVTEQ","officialNames":{"pt":"Macapá"}},"geometry":{"type":"Point","coordinates":[-51.06571,0.03453]},"id":"C23028267,NAVTEQ"},{"type":"Feature","properties":{"name":"Marabá","parent":"23028908,NAVTEQ","officialNames":{"pt":"Marabá"}},"geometry":{"type":"Point","coordinates":[-49.11829,-5.37114]},"id":"C23029316,NAVTEQ"},{"type":"Feature","properties":{"name":"Carapicuíba","parent":"23034706,NAVTEQ","officialNames":{"pt":"Carapicuíba"}},"geometry":{"type":"Point","coordinates":[-46.83569,-23.52515]},"id":"C23039516,NAVTEQ"},{"type":"Feature","properties":{"name":"Itaboraí","parent":"23031642,NAVTEQ","officialNames":{"pt":"Itaboraí"}},"geometry":{"type":"Point","coordinates":[-42.87428,-22.76112]},"id":"C23668028,NAVTEQ"},{"type":"Feature","properties":{"name":"Barbacena","parent":"23031641,NAVTEQ","officialNames":{"pt":"Barbacena"}},"geometry":{"type":"Point","coordinates":[-43.76695,-21.21403]},"id":"C23902188,NAVTEQ"},{"type":"Feature","properties":{"name":"Jundiaí","parent":"23034706,NAVTEQ","officialNames":{"pt":"Jundiaí"}},"geometry":{"type":"Point","coordinates":[-46.88075,-23.19977]},"id":"C23039334,NAVTEQ"},{"type":"Feature","properties":{"name":"Paulo Afonso","parent":"23029203,NAVTEQ","officialNames":{"pt":"Paulo Afonso"}},"geometry":{"type":"Point","coordinates":[-38.23257,-9.41859]},"id":"C23032153,NAVTEQ"},{"type":"Feature","properties":{"name":"Bagé","parent":"23034895,NAVTEQ","officialNames":{"pt":"Bagé"}},"geometry":{"type":"Point","coordinates":[-54.10738,-31.3282]},"id":"C23930407,NAVTEQ"},{"type":"Feature","properties":{"name":"Serra","parent":"23029204,NAVTEQ","officialNames":{"pt":"Serra"}},"geometry":{"type":"Point","coordinates":[-40.24123,-20.18565]},"id":"C23031353,NAVTEQ"},{"type":"Feature","properties":{"name":"Timon","parent":"23029195,NAVTEQ","officialNames":{"pt":"Timon"}},"geometry":{"type":"Point","coordinates":[-42.83687,-5.09504]},"id":"C23028674,NAVTEQ"},{"type":"Feature","properties":{"name":"Camaragibe","parent":"23029200,NAVTEQ","officialNames":{"pt":"Camaragibe"}},"geometry":{"type":"Point","coordinates":[-34.99327,-8.00001]},"id":"C23575862,NAVTEQ"},{"type":"Feature","properties":{"name":"Lages","parent":"23034894,NAVTEQ","officialNames":{"pt":"Lages"}},"geometry":{"type":"Point","coordinates":[-50.32097,-27.81976]},"id":"C23039047,NAVTEQ"},{"type":"Feature","properties":{"name":"Araraquara","parent":"23034706,NAVTEQ","officialNames":{"pt":"Araraquara"}},"geometry":{"type":"Point","coordinates":[-48.17676,-21.79429]},"id":"C23316475,NAVTEQ"},{"type":"Feature","properties":{"name":"Americana","parent":"23034706,NAVTEQ","officialNames":{"pt":"Americana"}},"geometry":{"type":"Point","coordinates":[-47.33186,-22.73927]},"id":"C23667747,NAVTEQ"},{"type":"Feature","properties":{"name":"Santana","parent":"23028909,NAVTEQ","officialNames":{"pt":"Santana"}},"geometry":{"type":"Point","coordinates":[-51.17845,-0.04552]},"id":"C23028272,NAVTEQ"},{"type":"Feature","properties":{"name":"Cubatão","parent":"23034706,NAVTEQ","officialNames":{"pt":"Cubatão"}},"geometry":{"type":"Point","coordinates":[-46.42819,-23.89256]},"id":"C23039238,NAVTEQ"},{"type":"Feature","properties":{"name":"Alagoinhas","parent":"23029203,NAVTEQ","officialNames":{"pt":"Alagoinhas"}},"geometry":{"type":"Point","coordinates":[-38.42118,-12.1459]},"id":"C23029514,NAVTEQ"},{"type":"Feature","properties":{"name":"Mauá","parent":"23034706,NAVTEQ","officialNames":{"pt":"Mauá"}},"geometry":{"type":"Point","coordinates":[-46.45818,-23.66434]},"id":"C23039711,NAVTEQ"},{"type":"Feature","properties":{"name":"Araguaína","parent":"23028910,NAVTEQ","officialNames":{"pt":"Araguaína"}},"geometry":{"type":"Point","coordinates":[-48.20809,-7.19198]},"id":"C23037797,NAVTEQ"},{"type":"Feature","properties":{"name":"Fortaleza","parent":"23029197,NAVTEQ","officialNames":{"pt":"Fortaleza"}},"geometry":{"type":"Point","coordinates":[-38.54292,-3.7184]},"id":"C23029108,NAVTEQ"},{"type":"Feature","properties":{"name":"Almirante Tamandaré","parent":"23034893,NAVTEQ","officialNames":{"pt":"Almirante Tamandaré"}},"geometry":{"type":"Point","coordinates":[-49.30141,-25.31685]},"id":"C23551635,NAVTEQ"},{"type":"Feature","properties":{"name":"Patos de Minas","parent":"23031641,NAVTEQ","officialNames":{"pt":"Patos de Minas"}},"geometry":{"type":"Point","coordinates":[-46.51823,-18.57903]},"id":"C23492765,NAVTEQ"},{"type":"Feature","properties":{"name":"Vitória de Santo Antão","parent":"23029200,NAVTEQ","officialNames":{"pt":"Vitória de Santo Antão"}},"geometry":{"type":"Point","coordinates":[-35.29204,-8.1139]},"id":"C23029346,NAVTEQ"},{"type":"Feature","properties":{"name":"Cachoeirinha","parent":"23034895,NAVTEQ","officialNames":{"pt":"Cachoeirinha"}},"geometry":{"type":"Point","coordinates":[-51.09564,-29.94902]},"id":"C23261611,NAVTEQ"},{"type":"Feature","properties":{"name":"Sabará","parent":"23031641,NAVTEQ","officialNames":{"pt":"Sabará"}},"geometry":{"type":"Point","coordinates":[-43.8109,-19.89096]},"id":"C23668121,NAVTEQ"},{"type":"Feature","properties":{"name":"Passos","parent":"23031641,NAVTEQ","officialNames":{"pt":"Passos"}},"geometry":{"type":"Point","coordinates":[-46.60995,-20.72086]},"id":"C23881102,NAVTEQ"},{"type":"Feature","properties":{"name":"Várzea Grande","parent":"23037321,NAVTEQ","officialNames":{"pt":"Várzea Grande"}},"geometry":{"type":"Point","coordinates":[-56.13931,-15.65174]},"id":"C23663077,NAVTEQ"},{"type":"Feature","properties":{"name":"Osasco","parent":"23034706,NAVTEQ","officialNames":{"pt":"Osasco"}},"geometry":{"type":"Point","coordinates":[-46.77467,-23.50192]},"id":"C23039128,NAVTEQ"},{"type":"Feature","properties":{"name":"Mesquita","parent":"23031642,NAVTEQ","officialNames":{"pt":"Mesquita"}},"geometry":{"type":"Point","coordinates":[-43.42942,-22.78243]},"id":"C23039650,NAVTEQ"},{"type":"Feature","properties":{"name":"Trindade","parent":"23037322,NAVTEQ","officialNames":{"pt":"Trindade"}},"geometry":{"type":"Point","coordinates":[-49.49675,-16.64764]},"id":"C23492623,NAVTEQ"},{"type":"Feature","properties":{"name":"Londrina","parent":"23034893,NAVTEQ","officialNames":{"pt":"Londrina"}},"geometry":{"type":"Point","coordinates":[-51.16547,-23.3104]},"id":"C23356113,NAVTEQ"},{"type":"Feature","properties":{"name":"Castanhal","parent":"23028908,NAVTEQ","officialNames":{"pt":"Castanhal"}},"geometry":{"type":"Point","coordinates":[-47.92225,-1.29705]},"id":"C23037785,NAVTEQ"},{"type":"Feature","properties":{"name":"Joinville","parent":"23034894,NAVTEQ","officialNames":{"pt":"Joinville"}},"geometry":{"type":"Point","coordinates":[-48.84601,-26.30583]},"id":"C23337873,NAVTEQ"},{"type":"Feature","properties":{"name":"Bragança Paulista","parent":"23034706,NAVTEQ","officialNames":{"pt":"Bragança Paulista"}},"geometry":{"type":"Point","coordinates":[-46.54084,-22.95133]},"id":"C23033501,NAVTEQ"},{"type":"Feature","properties":{"name":"Arapiraca","parent":"23029201,NAVTEQ","officialNames":{"pt":"Arapiraca"}},"geometry":{"type":"Point","coordinates":[-36.66038,-9.75168]},"id":"C23029350,NAVTEQ"},{"type":"Feature","properties":{"name":"Limeira","parent":"23034706,NAVTEQ","officialNames":{"pt":"Limeira"}},"geometry":{"type":"Point","coordinates":[-47.40272,-22.56481]},"id":"C23310948,NAVTEQ"},{"type":"Feature","properties":{"name":"Ananindeua","parent":"23028908,NAVTEQ","officialNames":{"pt":"Ananindeua"}},"geometry":{"type":"Point","coordinates":[-48.37217,-1.36605]},"id":"C23037780,NAVTEQ"},{"type":"Feature","properties":{"name":"Coronel Fabriciano","parent":"23031641,NAVTEQ","officialNames":{"pt":"Coronel Fabriciano"}},"geometry":{"type":"Point","coordinates":[-42.62685,-19.5186]},"id":"C23492777,NAVTEQ"},{"type":"Feature","properties":{"name":"Itapevi","parent":"23034706,NAVTEQ","officialNames":{"pt":"Itapevi"}},"geometry":{"type":"Point","coordinates":[-46.92523,-23.54195]},"id":"C23039637,NAVTEQ"},{"type":"Feature","properties":{"name":"Santo André","parent":"23034706,NAVTEQ","officialNames":{"pt":"Santo André"}},"geometry":{"type":"Point","coordinates":[-46.50714,-23.69896]},"id":"C23039537,NAVTEQ"},{"type":"Feature","properties":{"name":"Parintins","parent":"23028906,NAVTEQ","officialNames":{"pt":"Parintins"}},"geometry":{"type":"Point","coordinates":[-56.73613,-2.62861]},"id":"C23029936,NAVTEQ"},{"type":"Feature","properties":{"name":"Barueri","parent":"23034706,NAVTEQ","officialNames":{"pt":"Barueri"}},"geometry":{"type":"Point","coordinates":[-46.84462,-23.50426]},"id":"C23039639,NAVTEQ"},{"type":"Feature","properties":{"name":"Palmas","parent":"23028910,NAVTEQ","officialNames":{"pt":"Palmas"}},"geometry":{"type":"Point","coordinates":[-48.33125,-10.16835]},"id":"C23028190,NAVTEQ"},{"type":"Feature","properties":{"name":"Itaquaquecetuba","parent":"23034706,NAVTEQ","officialNames":{"pt":"Itaquaquecetuba"}},"geometry":{"type":"Point","coordinates":[-46.35261,-23.46942]},"id":"C23039457,NAVTEQ"},{"type":"Feature","properties":{"name":"Cuiabá","parent":"23037321,NAVTEQ","officialNames":{"pt":"Cuiabá"}},"geometry":{"type":"Point","coordinates":[-56.09491,-15.59902]},"id":"C23381590,NAVTEQ"},{"type":"Feature","properties":{"name":"Foz do Iguaçu","parent":"23034893,NAVTEQ","officialNames":{"pt":"Foz do Iguaçu"}},"geometry":{"type":"Point","coordinates":[-54.57002,-25.51771]},"id":"C23722218,NAVTEQ"},{"type":"Feature","properties":{"name":"Feira de Santana","parent":"23029203,NAVTEQ","officialNames":{"pt":"Feira de Santana"}},"geometry":{"type":"Point","coordinates":[-38.95571,-12.25537]},"id":"C23332795,NAVTEQ"},{"type":"Feature","properties":{"name":"Suzano","parent":"23034706,NAVTEQ","officialNames":{"pt":"Suzano"}},"geometry":{"type":"Point","coordinates":[-46.31034,-23.54143]},"id":"C23551516,NAVTEQ"},{"type":"Feature","properties":{"name":"Aracaju","parent":"23029202,NAVTEQ","officialNames":{"pt":"Aracaju"}},"geometry":{"type":"Point","coordinates":[-37.07442,-10.90914]},"id":"C23029440,NAVTEQ"},{"type":"Feature","properties":{"name":"Barreiras","parent":"23029203,NAVTEQ","officialNames":{"pt":"Barreiras"}},"geometry":{"type":"Point","coordinates":[-44.99225,-12.14808]},"id":"C23029539,NAVTEQ"},{"type":"Feature","properties":{"name":"Colombo","parent":"23034893,NAVTEQ","officialNames":{"pt":"Colombo"}},"geometry":{"type":"Point","coordinates":[-49.22594,-25.29212]},"id":"C23668010,NAVTEQ"},{"type":"Feature","properties":{"name":"Parnamirim","parent":"23029198,NAVTEQ","officialNames":{"pt":"Parnamirim"}},"geometry":{"type":"Point","coordinates":[-35.26075,-5.90581]},"id":"C23029836,NAVTEQ"},{"type":"Feature","properties":{"name":"Jaraguá do sul","parent":"23034894,NAVTEQ","officialNames":{"pt":"Jaraguá do sul"}},"geometry":{"type":"Point","coordinates":[-49.06807,-26.48439]},"id":"C23034796,NAVTEQ"},{"type":"Feature","properties":{"name":"Teresina","parent":"23029196,NAVTEQ","officialNames":{"pt":"Teresina"}},"geometry":{"type":"Point","coordinates":[-42.80155,-5.08932]},"id":"C23028873,NAVTEQ"},{"type":"Feature","properties":{"name":"Passo Fundo","parent":"23034895,NAVTEQ","officialNames":{"pt":"Passo Fundo"}},"geometry":{"type":"Point","coordinates":[-52.40884,-28.26143]},"id":"C23481038,NAVTEQ"},{"type":"Feature","properties":{"name":"Francisco Morato","parent":"23034706,NAVTEQ","officialNames":{"pt":"Francisco Morato"}},"geometry":{"type":"Point","coordinates":[-46.74312,-23.28062]},"id":"C23528423,NAVTEQ"},{"type":"Feature","properties":{"name":"Gravataí","parent":"23034895,NAVTEQ","officialNames":{"pt":"Gravataí"}},"geometry":{"type":"Point","coordinates":[-50.99123,-29.9424]},"id":"C23261355,NAVTEQ"},{"type":"Feature","properties":{"name":"Itajaí","parent":"23034894,NAVTEQ","officialNames":{"pt":"Itajaí"}},"geometry":{"type":"Point","coordinates":[-48.66259,-26.90833]},"id":"C23034790,NAVTEQ"},{"type":"Feature","properties":{"name":"Nilópolis","parent":"23031642,NAVTEQ","officialNames":{"pt":"Nilópolis"}},"geometry":{"type":"Point","coordinates":[-43.41447,-22.80865]},"id":"C23039463,NAVTEQ"},{"type":"Feature","properties":{"name":"Luziânia","parent":"23037322,NAVTEQ","officialNames":{"pt":"Luziânia"}},"geometry":{"type":"Point","coordinates":[-47.92668,-16.25032]},"id":"C23038370,NAVTEQ"},{"type":"Feature","properties":{"name":"Governador Valadares","parent":"23031641,NAVTEQ","officialNames":{"pt":"Governador Valadares"}},"geometry":{"type":"Point","coordinates":[-41.95041,-18.84827]},"id":"C23716549,NAVTEQ"},{"type":"Feature","properties":{"name":"Divinópolis","parent":"23031641,NAVTEQ","officialNames":{"pt":"Divinópolis"}},"geometry":{"type":"Point","coordinates":[-44.88722,-20.13893]},"id":"C23741017,NAVTEQ"},{"type":"Feature","properties":{"name":"Sinop","parent":"23037321,NAVTEQ","officialNames":{"pt":"Sinop"}},"geometry":{"type":"Point","coordinates":[-55.49999,-11.8806]},"id":"C23381653,NAVTEQ"},{"type":"Feature","properties":{"name":"São José dos Pinhais","parent":"23034893,NAVTEQ","officialNames":{"pt":"São José dos Pinhais"}},"geometry":{"type":"Point","coordinates":[-49.20411,-25.53642]},"id":"C23261674,NAVTEQ"},{"type":"Feature","properties":{"name":"Abaetetuba","parent":"23028908,NAVTEQ","officialNames":{"pt":"Abaetetuba"}},"geometry":{"type":"Point","coordinates":[-48.87477,-1.72916]},"id":"C23029968,NAVTEQ"},{"type":"Feature","properties":{"name":"Taguatinga","parent":"23037323,NAVTEQ","officialNames":{"pt":"Taguatinga"}},"geometry":{"type":"Point","coordinates":[-48.05223,-15.83229]},"id":"C23056574,NAVTEQ"},{"type":"Feature","properties":{"name":"Simões Filho","parent":"23029203,NAVTEQ","officialNames":{"pt":"Simões Filho"}},"geometry":{"type":"Point","coordinates":[-38.40517,-12.78536]},"id":"C23330953,NAVTEQ"},{"type":"Feature","properties":{"name":"Guarapuava","parent":"23034893,NAVTEQ","officialNames":{"pt":"Guarapuava"}},"geometry":{"type":"Point","coordinates":[-51.45638,-25.39345]},"id":"C23337855,NAVTEQ"},{"type":"Feature","properties":{"name":"Samambaia","parent":"23037323,NAVTEQ","officialNames":{"pt":"Samambaia"}},"geometry":{"type":"Point","coordinates":[-48.10371,-15.87914]},"id":"C23056570,NAVTEQ"},{"type":"Feature","properties":{"name":"Ponta Grossa","parent":"23034893,NAVTEQ","officialNames":{"pt":"Ponta Grossa"}},"geometry":{"type":"Point","coordinates":[-50.1631,-25.09494]},"id":"C23337850,NAVTEQ"},{"type":"Feature","properties":{"name":"Sobradinho","parent":"23037323,NAVTEQ","officialNames":{"pt":"Sobradinho"}},"geometry":{"type":"Point","coordinates":[-47.82985,-15.63502]},"id":"C23056572,NAVTEQ"},{"type":"Feature","properties":{"name":"Araguari","parent":"23031641,NAVTEQ","officialNames":{"pt":"Araguari"}},"geometry":{"type":"Point","coordinates":[-48.18365,-18.64682]},"id":"C23492644,NAVTEQ"},{"type":"Feature","properties":{"name":"Cascavel","parent":"23034893,NAVTEQ","officialNames":{"pt":"Cascavel"}},"geometry":{"type":"Point","coordinates":[-53.45362,-24.96366]},"id":"C23337918,NAVTEQ"},{"type":"Feature","properties":{"name":"Bauru","parent":"23034706,NAVTEQ","officialNames":{"pt":"Bauru"}},"geometry":{"type":"Point","coordinates":[-49.06155,-22.31566]},"id":"C23323489,NAVTEQ"},{"type":"Feature","properties":{"name":"São João de Meriti","parent":"23031642,NAVTEQ","officialNames":{"pt":"São João de Meriti"}},"geometry":{"type":"Point","coordinates":[-43.36589,-22.79603]},"id":"C23039396,NAVTEQ"},{"type":"Feature","properties":{"name":"Alvorada","parent":"23034895,NAVTEQ","officialNames":{"pt":"Alvorada"}},"geometry":{"type":"Point","coordinates":[-51.07859,-30.00057]},"id":"C23528357,NAVTEQ"},{"type":"Feature","properties":{"name":"Boa Vista","parent":"23028907,NAVTEQ","officialNames":{"pt":"Boa Vista"}},"geometry":{"type":"Point","coordinates":[-60.6714,2.81941]},"id":"C23029955,NAVTEQ"},{"type":"Feature","properties":{"name":"Ibirité","parent":"23031641,NAVTEQ","officialNames":{"pt":"Ibirité"}},"geometry":{"type":"Point","coordinates":[-44.05981,-20.02075]},"id":"C23714248,NAVTEQ"},{"type":"Feature","properties":{"name":"Campinas","parent":"23034706,NAVTEQ","officialNames":{"pt":"Campinas"}},"geometry":{"type":"Point","coordinates":[-47.06459,-22.90905]},"id":"C23039379,NAVTEQ"},{"type":"Feature","properties":{"name":"Botucatu","parent":"23034706,NAVTEQ","officialNames":{"pt":"Botucatu"}},"geometry":{"type":"Point","coordinates":[-48.45576,-22.89059]},"id":"C23324075,NAVTEQ"},{"type":"Feature","properties":{"name":"Garanhuns","parent":"23029200,NAVTEQ","officialNames":{"pt":"Garanhuns"}},"geometry":{"type":"Point","coordinates":[-36.49659,-8.89064]},"id":"C23031494,NAVTEQ"},{"type":"Feature","properties":{"name":"João Pessoa","parent":"23029199,NAVTEQ","officialNames":{"pt":"João Pessoa"}},"geometry":{"type":"Point","coordinates":[-34.86105,-7.11526]},"id":"C23030654,NAVTEQ"},{"type":"Feature","properties":{"name":"Santa Rita","parent":"23029199,NAVTEQ","officialNames":{"pt":"Santa Rita"}},"geometry":{"type":"Point","coordinates":[-34.98225,-7.11475]},"id":"C23029555,NAVTEQ"},{"type":"Feature","properties":{"name":"Guará","parent":"23037323,NAVTEQ","officialNames":{"pt":"Guará"}},"geometry":{"type":"Point","coordinates":[-47.9806,-15.82475]},"id":"C23056562,NAVTEQ"},{"type":"Feature","properties":{"name":"Camaçari","parent":"23029203,NAVTEQ","officialNames":{"pt":"Camaçari"}},"geometry":{"type":"Point","coordinates":[-38.32337,-12.69364]},"id":"C23330962,NAVTEQ"},{"type":"Feature","properties":{"name":"Gama","parent":"23037323,NAVTEQ","officialNames":{"pt":"Gama"}},"geometry":{"type":"Point","coordinates":[-48.07813,-16.0076]},"id":"C23056561,NAVTEQ"},{"type":"Feature","properties":{"name":"Linhares","parent":"23029204,NAVTEQ","officialNames":{"pt":"Linhares"}},"geometry":{"type":"Point","coordinates":[-40.06429,-19.39061]},"id":"C23031213,NAVTEQ"},{"type":"Feature","properties":{"name":"São José do Rio Preto","parent":"23034706,NAVTEQ","officialNames":{"pt":"São José do Rio Preto"}},"geometry":{"type":"Point","coordinates":[-49.38576,-20.80987]},"id":"C23663070,NAVTEQ"},{"type":"Feature","properties":{"name":"Poá","parent":"23034706,NAVTEQ","officialNames":{"pt":"Poá"}},"geometry":{"type":"Point","coordinates":[-46.344,-23.52605]},"id":"C23698013,NAVTEQ"},{"type":"Feature","properties":{"name":"Planaltina","parent":"23037323,NAVTEQ","officialNames":{"pt":"Planaltina"}},"geometry":{"type":"Point","coordinates":[-47.65567,-15.62284]},"id":"C23056567,NAVTEQ"},{"type":"Feature","properties":{"name":"Ipatinga","parent":"23031641,NAVTEQ","officialNames":{"pt":"Ipatinga"}},"geometry":{"type":"Point","coordinates":[-42.53673,-19.4682]},"id":"C23032395,NAVTEQ"},{"type":"Feature","properties":{"name":"Pinhais","parent":"23034893,NAVTEQ","officialNames":{"pt":"Pinhais"}},"geometry":{"type":"Point","coordinates":[-49.18488,-25.43326]},"id":"C23096477,NAVTEQ"},{"type":"Feature","properties":{"name":"Belém","parent":"23028908,NAVTEQ","officialNames":{"pt":"Belém"}},"geometry":{"type":"Point","coordinates":[-48.50253,-1.45442]},"id":"C23029984,NAVTEQ"},{"type":"Feature","properties":{"name":"Bragança","parent":"23028908,NAVTEQ","officialNames":{"pt":"Bragança"}},"geometry":{"type":"Point","coordinates":[-46.78868,-1.06561]},"id":"C23029987,NAVTEQ"},{"type":"Feature","properties":{"name":"Caucaia","parent":"23029197,NAVTEQ","officialNames":{"pt":"Caucaia"}},"geometry":{"type":"Point","coordinates":[-38.65836,-3.7344]},"id":"C23029095,NAVTEQ"},{"type":"Feature","properties":{"name":"Sumaré","parent":"23034706,NAVTEQ","officialNames":{"pt":"Sumaré"}},"geometry":{"type":"Point","coordinates":[-47.26688,-22.82113]},"id":"C23059912,NAVTEQ"},{"type":"Feature","properties":{"name":"Hortolândia","parent":"23034706,NAVTEQ","officialNames":{"pt":"Hortolândia"}},"geometry":{"type":"Point","coordinates":[-47.21994,-22.85717]},"id":"C23059911,NAVTEQ"},{"type":"Feature","properties":{"name":"Resende","parent":"23031642,NAVTEQ","officialNames":{"pt":"Resende"}},"geometry":{"type":"Point","coordinates":[-44.45039,-22.47055]},"id":"C23032881,NAVTEQ"},{"type":"Feature","properties":{"name":"Indaiatuba","parent":"23034706,NAVTEQ","officialNames":{"pt":"Indaiatuba"}},"geometry":{"type":"Point","coordinates":[-47.22233,-23.08717]},"id":"C23059914,NAVTEQ"},{"type":"Feature","properties":{"name":"Porto Seguro","parent":"23029203,NAVTEQ","officialNames":{"pt":"Porto Seguro"}},"geometry":{"type":"Point","coordinates":[-39.0647,-16.45105]},"id":"C23333952,NAVTEQ"},{"type":"Feature","properties":{"name":"São José de Ribamar","parent":"23029195,NAVTEQ","officialNames":{"pt":"São José de Ribamar"}},"geometry":{"type":"Point","coordinates":[-44.0626,-2.56265]},"id":"C23028551,NAVTEQ"},{"type":"Feature","properties":{"name":"Jacareí","parent":"23034706,NAVTEQ","officialNames":{"pt":"Jacareí"}},"geometry":{"type":"Point","coordinates":[-45.97232,-23.30293]},"id":"C23310442,NAVTEQ"},{"type":"Feature","properties":{"name":"Betim","parent":"23031641,NAVTEQ","officialNames":{"pt":"Betim"}},"geometry":{"type":"Point","coordinates":[-44.19919,-19.96765]},"id":"C23039359,NAVTEQ"},{"type":"Feature","properties":{"name":"Barretos","parent":"23034706,NAVTEQ","officialNames":{"pt":"Barretos"}},"geometry":{"type":"Point","coordinates":[-48.58772,-20.55711]},"id":"C23323174,NAVTEQ"},{"type":"Feature","properties":{"name":"Mogi Guaçu","parent":"23034706,NAVTEQ","officialNames":{"pt":"Mogi Guaçu"}},"geometry":{"type":"Point","coordinates":[-46.94175,-22.37307]},"id":"C23323175,NAVTEQ"},{"type":"Feature","properties":{"name":"Volta Redonda","parent":"23031642,NAVTEQ","officialNames":{"pt":"Volta Redonda"}},"geometry":{"type":"Point","coordinates":[-44.09397,-22.50504]},"id":"C23033634,NAVTEQ"},{"type":"Feature","properties":{"name":"Teixeira de Freitas","parent":"23029203,NAVTEQ","officialNames":{"pt":"Teixeira de Freitas"}},"geometry":{"type":"Point","coordinates":[-39.70887,-17.52642]},"id":"C23384430,NAVTEQ"},{"type":"Feature","properties":{"name":"Itapetininga","parent":"23034706,NAVTEQ","officialNames":{"pt":"Itapetininga"}},"geometry":{"type":"Point","coordinates":[-48.04506,-23.58485]},"id":"C23323381,NAVTEQ"},{"type":"Feature","properties":{"name":"Uberlândia","parent":"23031641,NAVTEQ","officialNames":{"pt":"Uberlândia"}},"geometry":{"type":"Point","coordinates":[-48.27836,-18.91907]},"id":"C23032799,NAVTEQ"},{"type":"Feature","properties":{"name":"São Luís","parent":"23029195,NAVTEQ","officialNames":{"pt":"São Luís"}},"geometry":{"type":"Point","coordinates":[-44.23861,-2.52535]},"id":"C23028553,NAVTEQ"},{"type":"Feature","properties":{"name":"Porto Alegre","parent":"23034895,NAVTEQ","officialNames":{"pt":"Porto Alegre"}},"geometry":{"type":"Point","coordinates":[-51.22801,-30.03415]},"id":"C23036923,NAVTEQ"},{"type":"Feature","properties":{"name":"Pindamonhangaba","parent":"23034706,NAVTEQ","officialNames":{"pt":"Pindamonhangaba"}},"geometry":{"type":"Point","coordinates":[-45.46211,-22.93]},"id":"C23310436,NAVTEQ"},{"type":"Feature","properties":{"name":"Jequié","parent":"23029203,NAVTEQ","officialNames":{"pt":"Jequié"}},"geometry":{"type":"Point","coordinates":[-40.08509,-13.85721]},"id":"C23032082,NAVTEQ"},{"type":"Feature","properties":{"name":"Uberaba","parent":"23031641,NAVTEQ","officialNames":{"pt":"Uberaba"}},"geometry":{"type":"Point","coordinates":[-47.916,-19.72259]},"id":"C23252316,NAVTEQ"},{"type":"Feature","properties":{"name":"Rio de Janeiro","parent":"23031642,NAVTEQ","officialNames":{"de":"Rio de Janeiro","it":"Rio de Janeiro","pt":"Rio de Janeiro","fr":"Rio de Janeiro","en":"Rio de Janeiro","es":"Río de Janeiro","nl":"Rio de Janeiro"}},"geometry":{"type":"Point","coordinates":[-43.19475,-22.97667]},"id":"C23039216,NAVTEQ"},{"type":"Feature","properties":{"name":"Araçatuba","parent":"23034706,NAVTEQ","officialNames":{"pt":"Araçatuba"}},"geometry":{"type":"Point","coordinates":[-50.42561,-21.21182]},"id":"C23323375,NAVTEQ"},{"type":"Feature","properties":{"name":"Ferraz de Vasconcelos","parent":"23034706,NAVTEQ","officialNames":{"pt":"Ferraz de Vasconcelos"}},"geometry":{"type":"Point","coordinates":[-46.37014,-23.54297]},"id":"C23670600,NAVTEQ"},{"type":"Feature","properties":{"name":"Rio Branco","parent":"23028905,NAVTEQ","officialNames":{"pt":"Rio Branco"}},"geometry":{"type":"Point","coordinates":[-67.8077,-9.97371]},"id":"C23028974,NAVTEQ"},{"type":"Feature","properties":{"name":"Valparaíso de Goiás","parent":"23037322,NAVTEQ","officialNames":{"pt":"Valparaíso de Goiás"}},"geometry":{"type":"Point","coordinates":[-47.98576,-16.0719]},"id":"C23492687,NAVTEQ"},{"type":"Feature","properties":{"name":"Ribeirão Pires","parent":"23034706,NAVTEQ","officialNames":{"pt":"Ribeirão Pires"}},"geometry":{"type":"Point","coordinates":[-46.41378,-23.71402]},"id":"C23034591,NAVTEQ"},{"type":"Feature","properties":{"name":"Queimados","parent":"23031642,NAVTEQ","officialNames":{"pt":"Queimados"}},"geometry":{"type":"Point","coordinates":[-43.55528,-22.71647]},"id":"C23528384,NAVTEQ"},{"type":"Feature","properties":{"name":"Ribeirão Preto","parent":"23034706,NAVTEQ","officialNames":{"pt":"Ribeirão Preto"}},"geometry":{"type":"Point","coordinates":[-47.80777,-21.17695]},"id":"C23034594,NAVTEQ"},{"type":"Feature","properties":{"name":"Campina Grande","parent":"23029199,NAVTEQ","officialNames":{"pt":"Campina Grande"}},"geometry":{"type":"Point","coordinates":[-35.89095,-7.22405]},"id":"C23030612,NAVTEQ"},{"type":"Feature","properties":{"name":"Guaíba","parent":"23034895,NAVTEQ","officialNames":{"pt":"Guaíba"}},"geometry":{"type":"Point","coordinates":[-51.32807,-30.11423]},"id":"C23902215,NAVTEQ"},{"type":"Feature","properties":{"name":"Imperatriz","parent":"23029195,NAVTEQ","officialNames":{"pt":"Imperatriz"}},"geometry":{"type":"Point","coordinates":[-47.4771,-5.52554]},"id":"C23029280,NAVTEQ"},{"type":"Feature","properties":{"name":"Juazeiro","parent":"23029203,NAVTEQ","officialNames":{"pt":"Juazeiro"}},"geometry":{"type":"Point","coordinates":[-40.50443,-9.43999]},"id":"C23032087,NAVTEQ"},{"type":"Feature","properties":{"name":"Arapongas","parent":"23034893,NAVTEQ","officialNames":{"pt":"Arapongas"}},"geometry":{"type":"Point","coordinates":[-51.42585,-23.41901]},"id":"C23902214,NAVTEQ"},{"type":"Feature","properties":{"name":"Sorocaba","parent":"23034706,NAVTEQ","officialNames":{"pt":"Sorocaba"}},"geometry":{"type":"Point","coordinates":[-47.45596,-23.50606]},"id":"C23663018,NAVTEQ"},{"type":"Feature","properties":{"name":"Santa Bárbara d\u0027Oeste","parent":"23034706,NAVTEQ","officialNames":{"pt":"Santa Bárbara d\u0027Oeste"}},"geometry":{"type":"Point","coordinates":[-47.41475,-22.75435]},"id":"C23670200,NAVTEQ"},{"type":"Feature","properties":{"name":"Florianópolis","parent":"23034894,NAVTEQ","officialNames":{"pt":"Florianópolis"}},"geometry":{"type":"Point","coordinates":[-48.54817,-27.5978]},"id":"C23034999,NAVTEQ"},{"type":"Feature","properties":{"name":"Catanduva","parent":"23034706,NAVTEQ","officialNames":{"pt":"Catanduva"}},"geometry":{"type":"Point","coordinates":[-48.97101,-21.13995]},"id":"C23310624,NAVTEQ"},{"type":"Feature","properties":{"name":"São Carlos","parent":"23034706,NAVTEQ","officialNames":{"pt":"São Carlos"}},"geometry":{"type":"Point","coordinates":[-47.89076,-22.01461]},"id":"C23316508,NAVTEQ"},{"type":"Feature","properties":{"name":"Olinda","parent":"23029200,NAVTEQ","officialNames":{"pt":"Olinda"}},"geometry":{"type":"Point","coordinates":[-34.85503,-7.99121]},"id":"C23530466,NAVTEQ"},{"type":"Feature","properties":{"name":"Vitória","parent":"23029204,NAVTEQ","officialNames":{"pt":"Vitória"}},"geometry":{"type":"Point","coordinates":[-40.30165,-20.29397]},"id":"C23333350,NAVTEQ"},{"type":"Feature","properties":{"name":"Magé","parent":"23031642,NAVTEQ","officialNames":{"pt":"Magé"}},"geometry":{"type":"Point","coordinates":[-43.03106,-22.64046]},"id":"C23470049,NAVTEQ"},{"type":"Feature","properties":{"name":"Niterói","parent":"23031642,NAVTEQ","officialNames":{"pt":"Niterói"}},"geometry":{"type":"Point","coordinates":[-43.10389,-22.88077]},"id":"C23032866,NAVTEQ"},{"type":"Feature","properties":{"name":"São Leopoldo","parent":"23034895,NAVTEQ","officialNames":{"pt":"São Leopoldo"}},"geometry":{"type":"Point","coordinates":[-51.152,-29.76037]},"id":"C23262489,NAVTEQ"},{"type":"Feature","properties":{"name":"Cametá","parent":"23028908,NAVTEQ","officialNames":{"pt":"Cametá"}},"geometry":{"type":"Point","coordinates":[-49.51338,-2.25272]},"id":"C23029995,NAVTEQ"},{"type":"Feature","properties":{"name":"Maringá","parent":"23034893,NAVTEQ","officialNames":{"pt":"Maringá"}},"geometry":{"type":"Point","coordinates":[-51.93686,-23.42573]},"id":"C23035859,NAVTEQ"},{"type":"Feature","properties":{"name":"Nova Iguaçu","parent":"23031642,NAVTEQ","officialNames":{"pt":"Nova Iguaçu"}},"geometry":{"type":"Point","coordinates":[-43.45108,-22.75996]},"id":"C23032868,NAVTEQ"},{"type":"Feature","properties":{"name":"Parnaíba","parent":"23029196,NAVTEQ","officialNames":{"pt":"Parnaíba"}},"geometry":{"type":"Point","coordinates":[-41.77588,-2.90408]},"id":"C23028816,NAVTEQ"},{"type":"Feature","properties":{"name":"Pelotas","parent":"23034895,NAVTEQ","officialNames":{"pt":"Pelotas"}},"geometry":{"type":"Point","coordinates":[-52.32073,-31.75986]},"id":"C23366241,NAVTEQ"},{"type":"Feature","properties":{"name":"Corumbá","parent":"23037320,NAVTEQ","officialNames":{"pt":"Corumbá"}},"geometry":{"type":"Point","coordinates":[-57.65464,-19.00974]},"id":"C23736722,NAVTEQ"},{"type":"Feature","properties":{"name":"Ceilândia","parent":"23037323,NAVTEQ","officialNames":{"pt":"Ceilândia"}},"geometry":{"type":"Point","coordinates":[-48.11249,-15.82165]},"id":"C23056559,NAVTEQ"},{"type":"Feature","properties":{"name":"Teresópolis","parent":"23031642,NAVTEQ","officialNames":{"pt":"Teresópolis"}},"geometry":{"type":"Point","coordinates":[-42.96666,-22.41242]},"id":"C23337812,NAVTEQ"},{"type":"Feature","properties":{"name":"Campo Grande","parent":"23037320,NAVTEQ","officialNames":{"pt":"Campo Grande"}},"geometry":{"type":"Point","coordinates":[-54.61534,-20.45632]},"id":"C23037343,NAVTEQ"},{"type":"Feature","properties":{"name":"Marília","parent":"23034706,NAVTEQ","officialNames":{"pt":"Marília"}},"geometry":{"type":"Point","coordinates":[-49.94753,-22.22016]},"id":"C23324081,NAVTEQ"},{"type":"Feature","properties":{"name":"Aparecida de Goiânia","parent":"23037322,NAVTEQ","officialNames":{"pt":"Aparecida de Goiânia"}},"geometry":{"type":"Point","coordinates":[-49.27567,-16.78202]},"id":"C23385221,NAVTEQ"},{"type":"Feature","properties":{"name":"São José dos Campos","parent":"23034706,NAVTEQ","officialNames":{"pt":"São José dos Campos"}},"geometry":{"type":"Point","coordinates":[-45.88718,-23.17932]},"id":"C23096312,NAVTEQ"},{"type":"Feature","properties":{"name":"Criciúma","parent":"23034894,NAVTEQ","officialNames":{"pt":"Criciúma"}},"geometry":{"type":"Point","coordinates":[-49.37162,-28.67799]},"id":"C23034988,NAVTEQ"},{"type":"Feature","properties":{"name":"Itabuna","parent":"23029203,NAVTEQ","officialNames":{"pt":"Itabuna"}},"geometry":{"type":"Point","coordinates":[-39.27762,-14.78917]},"id":"C23038523,NAVTEQ"},{"type":"Feature","properties":{"name":"Itapecerica da Serra","parent":"23034706,NAVTEQ","officialNames":{"pt":"Itapecerica da Serra"}},"geometry":{"type":"Point","coordinates":[-46.8487,-23.7179]},"id":"C23575965,NAVTEQ"},{"type":"Feature","properties":{"name":"Rio Claro","parent":"23034706,NAVTEQ","officialNames":{"pt":"Rio Claro"}},"geometry":{"type":"Point","coordinates":[-47.5627,-22.41196]},"id":"C23310476,NAVTEQ"},{"type":"Feature","properties":{"name":"Crato","parent":"23029197,NAVTEQ","officialNames":{"pt":"Crato"}},"geometry":{"type":"Point","coordinates":[-39.4144,-7.23227]},"id":"C23667795,NAVTEQ"},{"type":"Feature","properties":{"name":"Uruguaiana","parent":"23034895,NAVTEQ","officialNames":{"pt":"Uruguaiana"}},"geometry":{"type":"Point","coordinates":[-57.07975,-29.77152]},"id":"C23037558,NAVTEQ"},{"type":"Feature","properties":{"name":"Presidente Prudente","parent":"23034706,NAVTEQ","officialNames":{"pt":"Presidente Prudente"}},"geometry":{"type":"Point","coordinates":[-51.38561,-22.12689]},"id":"C23333368,NAVTEQ"},{"type":"Feature","properties":{"name":"Juazeiro do Norte","parent":"23029197,NAVTEQ","officialNames":{"pt":"Juazeiro do Norte"}},"geometry":{"type":"Point","coordinates":[-39.32219,-7.23662]},"id":"C23667797,NAVTEQ"},{"type":"Feature","properties":{"name":"Vitória da Conquista","parent":"23029203,NAVTEQ","officialNames":{"pt":"Vitória da Conquista"}},"geometry":{"type":"Point","coordinates":[-40.83657,-14.86476]},"id":"C23030876,NAVTEQ"},{"type":"Feature","properties":{"name":"Bento Gonçalves","parent":"23034895,NAVTEQ","officialNames":{"pt":"Bento Gonçalves"}},"geometry":{"type":"Point","coordinates":[-51.51851,-29.1743]},"id":"C23411818,NAVTEQ"},{"type":"Feature","properties":{"name":"Araruama","parent":"23031642,NAVTEQ","officialNames":{"pt":"Araruama"}},"geometry":{"type":"Point","coordinates":[-42.3396,-22.8767]},"id":"C23905356,NAVTEQ"},{"type":"Feature","properties":{"name":"Porto Velho","parent":"23028904,NAVTEQ","officialNames":{"pt":"Porto Velho"}},"geometry":{"type":"Point","coordinates":[-63.90199,-8.76167]},"id":"C23028928,NAVTEQ"},{"type":"Feature","properties":{"name":"São Gonçalo","parent":"23031642,NAVTEQ","officialNames":{"pt":"São Gonçalo"}},"geometry":{"type":"Point","coordinates":[-43.03918,-22.79675]},"id":"C23090257,NAVTEQ"},{"type":"Feature","properties":{"name":"Apucarana","parent":"23034893,NAVTEQ","officialNames":{"pt":"Apucarana"}},"geometry":{"type":"Point","coordinates":[-51.4611,-23.55147]},"id":"C23902233,NAVTEQ"},{"type":"Feature","properties":{"name":"Caxias do sul","parent":"23034895,NAVTEQ","officialNames":{"pt":"Caxias do sul"}},"geometry":{"type":"Point","coordinates":[-51.1794,-29.16785]},"id":"C23036452,NAVTEQ"},{"type":"Feature","properties":{"name":"Caruaru","parent":"23029200,NAVTEQ","officialNames":{"pt":"Caruaru"}},"geometry":{"type":"Point","coordinates":[-35.97389,-8.28134]},"id":"C23385218,NAVTEQ"},{"type":"Feature","properties":{"name":"Mossoró","parent":"23029198,NAVTEQ","officialNames":{"pt":"Mossoró"}},"geometry":{"type":"Point","coordinates":[-37.34405,-5.18796]},"id":"C23038513,NAVTEQ"},{"type":"Feature","properties":{"name":"Natal","parent":"23029198,NAVTEQ","officialNames":{"pt":"Natal"}},"geometry":{"type":"Point","coordinates":[-35.21151,-5.79544]},"id":"C23038514,NAVTEQ"},{"type":"Feature","properties":{"name":"Duque de Caxias","parent":"23031642,NAVTEQ","officialNames":{"pt":"Duque de Caxias"}},"geometry":{"type":"Point","coordinates":[-43.313,-22.78737]},"id":"C23032843,NAVTEQ"},{"type":"Feature","properties":{"name":"Franca","parent":"23034706,NAVTEQ","officialNames":{"pt":"Franca"}},"geometry":{"type":"Point","coordinates":[-47.39193,-20.52791]},"id":"C23324257,NAVTEQ"},{"type":"Feature","properties":{"name":"Montes Claros","parent":"23031641,NAVTEQ","officialNames":{"pt":"Montes Claros"}},"geometry":{"type":"Point","coordinates":[-43.86551,-16.73672]},"id":"C23369768,NAVTEQ"},{"type":"Feature","properties":{"name":"Juiz de Fora","parent":"23031641,NAVTEQ","officialNames":{"pt":"Juiz de Fora"}},"geometry":{"type":"Point","coordinates":[-43.34873,-21.76532]},"id":"C23032447,NAVTEQ"},{"type":"Feature","properties":{"name":"Goiânia","parent":"23037322,NAVTEQ","officialNames":{"pt":"Goiânia"}},"geometry":{"type":"Point","coordinates":[-49.25627,-16.67932]},"id":"C23037270,NAVTEQ"},{"type":"Feature","properties":{"name":"Angra dos Reis","parent":"23031642,NAVTEQ","officialNames":{"pt":"Angra dos Reis"}},"geometry":{"type":"Point","coordinates":[-44.31381,-23.0072]},"id":"C23272734,NAVTEQ"},{"type":"Feature","properties":{"name":"Taboão da Serra","parent":"23034706,NAVTEQ","officialNames":{"pt":"Taboão da Serra"}},"geometry":{"type":"Point","coordinates":[-46.78745,-23.62482]},"id":"C23551455,NAVTEQ"},{"type":"Feature","properties":{"name":"Macaé","parent":"23031642,NAVTEQ","officialNames":{"pt":"Macaé"}},"geometry":{"type":"Point","coordinates":[-41.78566,-22.3718]},"id":"C23032855,NAVTEQ"},{"type":"Feature","properties":{"name":"São Bernardo do Campo","parent":"23034706,NAVTEQ","officialNames":{"pt":"São Bernardo do Campo"}},"geometry":{"type":"Point","coordinates":[-46.55243,-23.70309]},"id":"C23039288,NAVTEQ"},{"type":"Feature","properties":{"name":"Paulista","parent":"23029200,NAVTEQ","officialNames":{"pt":"Paulista"}},"geometry":{"type":"Point","coordinates":[-34.87262,-7.93986]},"id":"C23028639,NAVTEQ"},{"type":"Feature","properties":{"name":"São José","parent":"23034894,NAVTEQ","officialNames":{"pt":"São José"}},"geometry":{"type":"Point","coordinates":[-48.6278,-27.61665]},"id":"C23034890,NAVTEQ"},{"type":"Feature","properties":{"name":"Belford Roxo","parent":"23031642,NAVTEQ","officialNames":{"pt":"Belford Roxo"}},"geometry":{"type":"Point","coordinates":[-43.39862,-22.76503]},"id":"C23032829,NAVTEQ"},{"type":"Feature","properties":{"name":"Araras","parent":"23034706,NAVTEQ","officialNames":{"pt":"Araras"}},"geometry":{"type":"Point","coordinates":[-47.38498,-22.35817]},"id":"C23337797,NAVTEQ"},{"type":"Feature","properties":{"name":"Cotia","parent":"23034706,NAVTEQ","officialNames":{"pt":"Cotia"}},"geometry":{"type":"Point","coordinates":[-46.9245,-23.60419]},"id":"C23470895,NAVTEQ"},{"type":"Feature","properties":{"name":"Anápolis","parent":"23037322,NAVTEQ","officialNames":{"pt":"Anápolis"}},"geometry":{"type":"Point","coordinates":[-48.95293,-16.32866]},"id":"C23384086,NAVTEQ"},{"type":"Feature","properties":{"name":"Salvador","parent":"23029203,NAVTEQ","officialNames":{"pt":"Salvador"}},"geometry":{"type":"Point","coordinates":[-38.5126,-12.9706]},"id":"C23031525,NAVTEQ"},{"type":"Feature","properties":{"name":"Lauro de Freitas","parent":"23029203,NAVTEQ","officialNames":{"pt":"Lauro de Freitas"}},"geometry":{"type":"Point","coordinates":[-38.32719,-12.89335]},"id":"C23670198,NAVTEQ"},{"type":"Feature","properties":{"name":"Blumenau","parent":"23034894,NAVTEQ","officialNames":{"pt":"Blumenau"}},"geometry":{"type":"Point","coordinates":[-49.06587,-26.91916]},"id":"C23034956,NAVTEQ"},{"type":"Feature","properties":{"name":"Maracanaú","parent":"23029197,NAVTEQ","officialNames":{"pt":"Maracanaú"}},"geometry":{"type":"Point","coordinates":[-38.62692,-3.87577]},"id":"C23029145,NAVTEQ"},{"type":"Feature","properties":{"name":"Cachoeiro de Itapemirim","parent":"23029204,NAVTEQ","officialNames":{"pt":"Cachoeiro de Itapemirim"}},"geometry":{"type":"Point","coordinates":[-41.11329,-20.84911]},"id":"C23031186,NAVTEQ"},{"type":"Feature","properties":{"name":"Paranaguá","parent":"23034893,NAVTEQ","officialNames":{"pt":"Paranaguá"}},"geometry":{"type":"Point","coordinates":[-48.50935,-25.52063]},"id":"C23664588,NAVTEQ"},{"type":"Feature","properties":{"name":"Campos dos Goytacazes","parent":"23031642,NAVTEQ","officialNames":{"pt":"Campos dos Goytacazes"}},"geometry":{"type":"Point","coordinates":[-41.32421,-21.75457]},"id":"C23032837,NAVTEQ"},{"type":"Feature","properties":{"name":"Colatina","parent":"23029204,NAVTEQ","officialNames":{"pt":"Colatina"}},"geometry":{"type":"Point","coordinates":[-40.63271,-19.53838]},"id":"C23031189,NAVTEQ"},{"type":"Feature","properties":{"name":"Codó","parent":"23029195,NAVTEQ","officialNames":{"pt":"Codó"}},"geometry":{"type":"Point","coordinates":[-43.8787,-4.45471]},"id":"C23029253,NAVTEQ"},{"type":"Feature","properties":{"name":"Guarulhos","parent":"23034706,NAVTEQ","officialNames":{"pt":"Guarulhos"}},"geometry":{"type":"Point","coordinates":[-46.50777,-23.44398]},"id":"C23039182,NAVTEQ"},{"type":"Feature","properties":{"name":"Rio Verde","parent":"23037322,NAVTEQ","officialNames":{"pt":"Rio Verde"}},"geometry":{"type":"Point","coordinates":[-50.92054,-17.7894]},"id":"C23774904,NAVTEQ"},{"type":"Feature","properties":{"name":"Jaú","parent":"23034706,NAVTEQ","officialNames":{"pt":"Jaú"}},"geometry":{"type":"Point","coordinates":[-48.56166,-22.29682]},"id":"C23033586,NAVTEQ"},{"type":"Feature","properties":{"name":"Petrópolis","parent":"23031642,NAVTEQ","officialNames":{"pt":"Petrópolis"}},"geometry":{"type":"Point","coordinates":[-43.18205,-22.50384]},"id":"C23090269,NAVTEQ"},{"type":"Feature","properties":{"name":"Cabo Frio","parent":"23031642,NAVTEQ","officialNames":{"pt":"Cabo Frio"}},"geometry":{"type":"Point","coordinates":[-42.0219,-22.87828]},"id":"C23385128,NAVTEQ"},{"type":"Feature","properties":{"name":"Santarém","parent":"23028908,NAVTEQ","officialNames":{"pt":"Santarém"}},"geometry":{"type":"Point","coordinates":[-54.6986,-2.44045]},"id":"C23028228,NAVTEQ"},{"type":"Feature","properties":{"name":"Açailândia","parent":"23029195,NAVTEQ","officialNames":{"pt":"Açailândia"}},"geometry":{"type":"Point","coordinates":[-47.50169,-4.95367]},"id":"C23384283,NAVTEQ"},{"type":"Feature","properties":{"name":"Brasília","parent":"23037323,NAVTEQ","officialNames":{"de":"Brasilia","it":"Brasilia","pt":"Brasília","fr":"Brasilia","en":"Brasilia","es":"Brasilia","nl":"Brasilia"}},"geometry":{"type":"Point","coordinates":[-47.92866,-15.77846]},"id":"C23056519,NAVTEQ"},{"type":"Feature","properties":{"name":"Guaratinguetá","parent":"23034706,NAVTEQ","officialNames":{"pt":"Guaratinguetá"}},"geometry":{"type":"Point","coordinates":[-45.19729,-22.81722]},"id":"C23038179,NAVTEQ"},{"type":"Feature","properties":{"name":"Praia Grande","parent":"23034706,NAVTEQ","officialNames":{"pt":"Praia Grande"}},"geometry":{"type":"Point","coordinates":[-46.41408,-23.99989]},"id":"C23034577,NAVTEQ"},{"type":"Feature","properties":{"name":"Caxias","parent":"23029195,NAVTEQ","officialNames":{"pt":"Caxias"}},"geometry":{"type":"Point","coordinates":[-43.34734,-4.87482]},"id":"C23384496,NAVTEQ"},{"type":"Feature","properties":{"name":"Sapucaia do sul","parent":"23034895,NAVTEQ","officialNames":{"pt":"Sapucaia do sul"}},"geometry":{"type":"Point","coordinates":[-51.14613,-29.84207]},"id":"C23261320,NAVTEQ"},{"type":"Feature","properties":{"name":"Maranguape","parent":"23029197,NAVTEQ","officialNames":{"pt":"Maranguape"}},"geometry":{"type":"Point","coordinates":[-38.68189,-3.89084]},"id":"C23384494,NAVTEQ"},{"type":"Feature","properties":{"name":"Santa Maria","parent":"23034895,NAVTEQ","officialNames":{"pt":"Santa Maria"}},"geometry":{"type":"Point","coordinates":[-53.80108,-29.69083]},"id":"C23039014,NAVTEQ"},{"type":"Feature","properties":{"name":"Novo Hamburgo","parent":"23034895,NAVTEQ","officialNames":{"pt":"Novo Hamburgo"}},"geometry":{"type":"Point","coordinates":[-51.12853,-29.67962]},"id":"C23036884,NAVTEQ"},{"type":"Feature","properties":{"name":"Santa Cruz do sul","parent":"23034895,NAVTEQ","officialNames":{"pt":"Santa Cruz do sul"}},"geometry":{"type":"Point","coordinates":[-52.43018,-29.71311]},"id":"C23039013,NAVTEQ"},{"type":"Feature","properties":{"name":"Maceió","parent":"23029201,NAVTEQ","officialNames":{"pt":"Maceió"}},"geometry":{"type":"Point","coordinates":[-35.73495,-9.66648]},"id":"C23029390,NAVTEQ"},{"type":"Feature","properties":{"name":"Varginha","parent":"23031641,NAVTEQ","officialNames":{"pt":"Varginha"}},"geometry":{"type":"Point","coordinates":[-45.43732,-21.55715]},"id":"C23032807,NAVTEQ"},{"type":"Feature","properties":{"name":"Campo Largo","parent":"23034893,NAVTEQ","officialNames":{"pt":"Campo Largo"}},"geometry":{"type":"Point","coordinates":[-49.53247,-25.45974]},"id":"C23557528,NAVTEQ"},{"type":"Feature","properties":{"name":"Embu","parent":"23034706,NAVTEQ","officialNames":{"pt":"Embu"}},"geometry":{"type":"Point","coordinates":[-46.85292,-23.64891]},"id":"C23557529,NAVTEQ"},{"type":"Feature","properties":{"name":"Santos","parent":"23034706,NAVTEQ","officialNames":{"pt":"Santos"}},"geometry":{"type":"Point","coordinates":[-46.3281,-23.96169]},"id":"C23039677,NAVTEQ"},{"type":"Feature","properties":{"name":"São Paulo","parent":"23034706,NAVTEQ","officialNames":{"de":"Sao Paulo","it":"Sao Paulo","pt":"São Paulo","fr":"Sao Paulo","en":"Sao Paulo","es":"Sao Paulo","nl":"Sao Paulo"}},"geometry":{"type":"Point","coordinates":[-46.65464,-23.56284]},"id":"C23039176,NAVTEQ"},{"type":"Feature","properties":{"name":"Guarujá","parent":"23034706,NAVTEQ","officialNames":{"pt":"Guarujá"}},"geometry":{"type":"Point","coordinates":[-46.2033,-23.98563]},"id":"C23039177,NAVTEQ"},{"type":"Feature","properties":{"name":"Franco da Rocha","parent":"23034706,NAVTEQ","officialNames":{"pt":"Franco da Rocha"}},"geometry":{"type":"Point","coordinates":[-46.72527,-23.32268]},"id":"C23551488,NAVTEQ"},{"type":"Feature","properties":{"name":"Sertãozinho","parent":"23034706,NAVTEQ","officialNames":{"pt":"Sertãozinho"}},"geometry":{"type":"Point","coordinates":[-48.00515,-21.14043]},"id":"C23033596,NAVTEQ"},{"type":"Feature","properties":{"name":"Taubaté","parent":"23034706,NAVTEQ","officialNames":{"pt":"Taubaté"}},"geometry":{"type":"Point","coordinates":[-45.56041,-23.0322]},"id":"C23575845,NAVTEQ"},{"type":"Feature","properties":{"name":"Várzea Paulista","parent":"23034706,NAVTEQ","officialNames":{"pt":"Várzea Paulista"}},"geometry":{"type":"Point","coordinates":[-46.83112,-23.2107]},"id":"C23470967,NAVTEQ"},{"type":"Feature","properties":{"name":"Petrolina","parent":"23029200,NAVTEQ","officialNames":{"pt":"Petrolina"}},"geometry":{"type":"Point","coordinates":[-40.50959,-9.39424]},"id":"C23028643,NAVTEQ"},{"type":"Feature","properties":{"name":"Nova Friburgo","parent":"23031642,NAVTEQ","officialNames":{"pt":"Nova Friburgo"}},"geometry":{"type":"Point","coordinates":[-42.53422,-22.28231]},"id":"C23331156,NAVTEQ"},{"type":"Feature","properties":{"name":"Dourados","parent":"23037320,NAVTEQ","officialNames":{"pt":"Dourados"}},"geometry":{"type":"Point","coordinates":[-54.80675,-22.22184]},"id":"C23730226,NAVTEQ"},{"type":"Feature","properties":{"name":"Ribeirão das Neves","parent":"23031641,NAVTEQ","officialNames":{"pt":"Ribeirão das Neves"}},"geometry":{"type":"Point","coordinates":[-44.08703,-19.76603]},"id":"C23664468,NAVTEQ"},{"type":"Feature","properties":{"name":"Sobral","parent":"23029197,NAVTEQ","officialNames":{"pt":"Sobral"}},"geometry":{"type":"Point","coordinates":[-40.34953,-3.68083]},"id":"C23029787,NAVTEQ"},{"type":"Feature","properties":{"name":"Nossa Senhora do Socorro","parent":"23029202,NAVTEQ","officialNames":{"pt":"Nossa Senhora do Socorro"}},"geometry":{"type":"Point","coordinates":[-37.13714,-10.85026]},"id":"C23029484,NAVTEQ"},{"type":"Feature","properties":{"name":"Palhoça","parent":"23034894,NAVTEQ","officialNames":{"pt":"Palhoça"}},"geometry":{"type":"Point","coordinates":[-48.66699,-27.63925]},"id":"C23038851,NAVTEQ"},{"type":"Feature","properties":{"name":"Votorantim","parent":"23034706,NAVTEQ","officialNames":{"pt":"Votorantim"}},"geometry":{"type":"Point","coordinates":[-47.44405,-23.54037]},"id":"C23725785,NAVTEQ"},{"type":"Feature","properties":{"name":"Ilhéus","parent":"23029203,NAVTEQ","officialNames":{"pt":"Ilhéus"}},"geometry":{"type":"Point","coordinates":[-39.04771,-14.78797]},"id":"C23334384,NAVTEQ"},{"type":"Feature","properties":{"name":"Atibaia","parent":"23034706,NAVTEQ","officialNames":{"pt":"Atibaia"}},"geometry":{"type":"Point","coordinates":[-46.54988,-23.11723]},"id":"C23430747,NAVTEQ"},{"type":"Feature","properties":{"name":"Diadema","parent":"23034706,NAVTEQ","officialNames":{"pt":"Diadema"}},"geometry":{"type":"Point","coordinates":[-46.60573,-23.69343]},"id":"C23039586,NAVTEQ"},{"type":"Feature","properties":{"name":"Piracicaba","parent":"23034706,NAVTEQ","officialNames":{"pt":"Piracicaba"}},"geometry":{"type":"Point","coordinates":[-47.64778,-22.72537]},"id":"C23667192,NAVTEQ"},{"type":"Feature","properties":{"name":"Ji-Paraná","parent":"23028904,NAVTEQ","officialNames":{"pt":"Ji-Paraná"}},"geometry":{"type":"Point","coordinates":[-61.94096,-10.88141]},"id":"C23408031,NAVTEQ"},{"type":"Feature","properties":{"name":"Cabo de Santo Agostinho","parent":"23029200,NAVTEQ","officialNames":{"pt":"Cabo de Santo Agostinho"}},"geometry":{"type":"Point","coordinates":[-35.03531,-8.28744]},"id":"C23558163,NAVTEQ"},{"type":"Feature","properties":{"name":"Poços de Caldas","parent":"23031641,NAVTEQ","officialNames":{"pt":"Poços de Caldas"}},"geometry":{"type":"Point","coordinates":[-46.56275,-21.78841]},"id":"C23031809,NAVTEQ"},{"type":"Feature","properties":{"name":"Canoas","parent":"23034895,NAVTEQ","officialNames":{"pt":"Canoas"}},"geometry":{"type":"Point","coordinates":[-51.18267,-29.91523]},"id":"C23261319,NAVTEQ"},{"type":"Feature","properties":{"name":"Barra Mansa","parent":"23031642,NAVTEQ","officialNames":{"pt":"Barra Mansa"}},"geometry":{"type":"Point","coordinates":[-44.16917,-22.54137]},"id":"C23038173,NAVTEQ"}]}