{"type":"FeatureCollection","features":[{"type":"Feature","properties":{"name":"Cerro Navia","parent":"23488685,NAVTEQ","officialNames":{"es":"Cerro Navia"}},"geometry":{"type":"Point","coordinates":[-70.72936,-33.43486]},"id":"C23488550,NAVTEQ"},{"type":"Feature","properties":{"name":"Lebu","parent":"23488915,NAVTEQ","officialNames":{"de":"Lebu","it":"Lebu","pt":"Lebu","fr":"Lebu","en":"Lebu","es":"Lebu","nl":"Lebu"}},"geometry":{"type":"Point","coordinates":[-73.59803,-37.64628]},"id":"C23488618,NAVTEQ"},{"type":"Feature","properties":{"name":"Recoleta","parent":"23488685,NAVTEQ","officialNames":{"es":"Recoleta"}},"geometry":{"type":"Point","coordinates":[-70.6453,-33.42375]},"id":"C23488517,NAVTEQ"},{"type":"Feature","properties":{"name":"Pichilemu","parent":"23488671,NAVTEQ","officialNames":{"de":"Pichilemu","it":"Pichilemu","pt":"Pichilemu","fr":"Pichilemu","en":"Pichilemu","es":"Pichilemu","nl":"Pichilemu"}},"geometry":{"type":"Point","coordinates":[-72.00679,-34.38445]},"id":"C23488555,NAVTEQ"},{"type":"Feature","properties":{"name":"Los Andes","parent":"23488965,NAVTEQ","officialNames":{"de":"Los Andes","it":"Los Andes","pt":"Los Andes","fr":"Los Andes","en":"Los Andes","es":"Los Andes","nl":"Los Andes"}},"geometry":{"type":"Point","coordinates":[-70.59834,-32.83431]},"id":"C23488519,NAVTEQ"},{"type":"Feature","properties":{"name":"Chile Chico","parent":"23488444,NAVTEQ","officialNames":{"de":"Chile Chico","it":"Chile Chico","pt":"Chile Chico","fr":"Chile Chico","en":"Chile Chico","es":"Chile Chico","nl":"Chile Chico"}},"geometry":{"type":"Point","coordinates":[-71.72643,-46.54008]},"id":"C23488615,NAVTEQ"},{"type":"Feature","properties":{"name":"Las Condes","parent":"23488685,NAVTEQ","officialNames":{"es":"Las Condes"}},"geometry":{"type":"Point","coordinates":[-70.59548,-33.41655]},"id":"C23488713,NAVTEQ"},{"type":"Feature","properties":{"name":"San Antonio","parent":"23488310,NAVTEQ","officialNames":{"de":"San Antonio","it":"San Antonio","pt":"San Antonio","fr":"San Antonio","en":"San Antonio","es":"San Antonio","nl":"San Antonio"}},"geometry":{"type":"Point","coordinates":[-71.61259,-33.5872]},"id":"C23488176,NAVTEQ"},{"type":"Feature","properties":{"name":"Punta Arenas","parent":"23489006,NAVTEQ","officialNames":{"de":"Punta Arenas","it":"Punta Arenas","pt":"Punta Arenas","fr":"Punta Arenas","en":"Punta Arenas","es":"Punta Arenas","nl":"Punta Arenas"}},"geometry":{"type":"Point","coordinates":[-70.89746,-53.15116]},"id":"C23488512,NAVTEQ"},{"type":"Feature","properties":{"name":"La Unión","parent":"23488277,NAVTEQ","officialNames":{"de":"La Union","it":"La Unión","pt":"La Unión","fr":"La Union","en":"La Union","es":"La Unión","nl":"La Union"}},"geometry":{"type":"Point","coordinates":[-73.07565,-40.29799]},"id":"C23489164,NAVTEQ"},{"type":"Feature","properties":{"name":"Talcahuano","parent":"23488650,NAVTEQ","officialNames":{"es":"Talcahuano"}},"geometry":{"type":"Point","coordinates":[-73.11337,-36.72431]},"id":"C23488513,NAVTEQ"},{"type":"Feature","properties":{"name":"Santiago","parent":"23488685,NAVTEQ","officialNames":{"de":"Santiago","it":"Santiago","pt":"Santiago","fr":"Santiago","en":"Santiago","es":"Santiago","nl":"Santiago"}},"geometry":{"type":"Point","coordinates":[-70.65056,-33.43727]},"id":"C23488276,NAVTEQ"},{"type":"Feature","properties":{"name":"Calama","parent":"23488977,NAVTEQ","officialNames":{"de":"Calama","it":"Calama","pt":"Calama","fr":"Calama","en":"Calama","es":"Calama","nl":"Calama"}},"geometry":{"type":"Point","coordinates":[-68.92587,-22.45332]},"id":"C23488792,NAVTEQ"},{"type":"Feature","properties":{"name":"Temuco","parent":"23489165,NAVTEQ","officialNames":{"de":"Temuco","it":"Temuco","pt":"Temuco","fr":"Temuco","en":"Temuco","es":"Temuco","nl":"Temuco"}},"geometry":{"type":"Point","coordinates":[-72.58444,-38.73398]},"id":"C23488902,NAVTEQ"},{"type":"Feature","properties":{"name":"Renca","parent":"23488685,NAVTEQ","officialNames":{"es":"Renca"}},"geometry":{"type":"Point","coordinates":[-70.7215,-33.40043]},"id":"C23488901,NAVTEQ"},{"type":"Feature","properties":{"name":"Illapel","parent":"23488720,NAVTEQ","officialNames":{"de":"Illapel","it":"Illapel","pt":"Illapel","fr":"Illapel","en":"Illapel","es":"Illapel","nl":"Illapel"}},"geometry":{"type":"Point","coordinates":[-71.19356,-31.63954]},"id":"C23488488,NAVTEQ"},{"type":"Feature","properties":{"name":"Los Ángeles","parent":"23488887,NAVTEQ","officialNames":{"de":"Los Angeles","it":"Los Ángeles","pt":"Los Ángeles","fr":"Los Angeles","en":"Los Angeles","es":"Los Ángeles","nl":"Los Angeles"}},"geometry":{"type":"Point","coordinates":[-72.3544,-37.47307]},"id":"C23489121,NAVTEQ"},{"type":"Feature","properties":{"name":"Putre","parent":"23488899,NAVTEQ","officialNames":{"de":"Putre","it":"Putre","pt":"Putre","fr":"Putre","en":"Putre","es":"Putre","nl":"Putre"}},"geometry":{"type":"Point","coordinates":[-69.53435,-18.21953]},"id":"C23488798,NAVTEQ"},{"type":"Feature","properties":{"name":"Iquique","parent":"23488259,NAVTEQ","officialNames":{"de":"Iquique","it":"Iquique","pt":"Iquique","fr":"Iquique","en":"Iquique","es":"Iquique","nl":"Iquique"}},"geometry":{"type":"Point","coordinates":[-70.14469,-20.21699]},"id":"C23489061,NAVTEQ"},{"type":"Feature","properties":{"name":"Quinta Normal","parent":"23488685,NAVTEQ","officialNames":{"es":"Quinta Normal"}},"geometry":{"type":"Point","coordinates":[-70.69562,-33.4224]},"id":"C23488584,NAVTEQ"},{"type":"Feature","properties":{"name":"San Bernardo","parent":"23489115,NAVTEQ","officialNames":{"de":"San Bernardo","it":"San Bernardo","pt":"San Bernardo","fr":"San Bernardo","en":"San Bernardo","es":"San Bernardo","nl":"San Bernardo"}},"geometry":{"type":"Point","coordinates":[-70.71449,-33.61654]},"id":"C23488691,NAVTEQ"},{"type":"Feature","properties":{"name":"Curicó","parent":"23489035,NAVTEQ","officialNames":{"de":"Curico","it":"Curicó","pt":"Curicó","fr":"Curico","en":"Curico","es":"Curicó","nl":"Curico"}},"geometry":{"type":"Point","coordinates":[-71.24156,-34.98566]},"id":"C23488606,NAVTEQ"},{"type":"Feature","properties":{"name":"Vallenar","parent":"23488729,NAVTEQ","officialNames":{"de":"Vallenar","it":"Vallenar","pt":"Vallenar","fr":"Vallenar","en":"Vallenar","es":"Vallenar","nl":"Vallenar"}},"geometry":{"type":"Point","coordinates":[-70.76144,-28.574]},"id":"C23488690,NAVTEQ"},{"type":"Feature","properties":{"name":"Rancagua","parent":"23488366,NAVTEQ","officialNames":{"de":"Rancagua","it":"Rancagua","pt":"Rancagua","fr":"Rancagua","en":"Rancagua","es":"Rancagua","nl":"Rancagua"}},"geometry":{"type":"Point","coordinates":[-70.73951,-34.16804]},"id":"C23488126,NAVTEQ"},{"type":"Feature","properties":{"name":"Puente Alto","parent":"23488395,NAVTEQ","officialNames":{"de":"Puente Alto","it":"Puente Alto","pt":"Puente Alto","fr":"Puente Alto","en":"Puente Alto","es":"Puente Alto","nl":"Puente Alto"}},"geometry":{"type":"Point","coordinates":[-70.5819,-33.57968]},"id":"C23488897,NAVTEQ"},{"type":"Feature","properties":{"name":"Chillán","parent":"23488647,NAVTEQ","officialNames":{"de":"Chillan","it":"Chillán","pt":"Chillán","fr":"Chillan","en":"Chillan","es":"Chillán","nl":"Chillan"}},"geometry":{"type":"Point","coordinates":[-72.10252,-36.6089]},"id":"C23488333,NAVTEQ"},{"type":"Feature","properties":{"name":"La Ligua","parent":"23488183,NAVTEQ","officialNames":{"de":"La Ligua","it":"La Ligua","pt":"La Ligua","fr":"La Ligua","en":"La Ligua","es":"La Ligua","nl":"La Ligua"}},"geometry":{"type":"Point","coordinates":[-71.2311,-32.44933]},"id":"C23488701,NAVTEQ"},{"type":"Feature","properties":{"name":"Cochrane","parent":"23488526,NAVTEQ","officialNames":{"de":"Cochrane","it":"Cochrane","pt":"Cochrane","fr":"Cochrane","en":"Cochrane","es":"Cochrane","nl":"Cochrane"}},"geometry":{"type":"Point","coordinates":[-72.56667,-47.25783]},"id":"C23488548,NAVTEQ"},{"type":"Feature","properties":{"name":"Pudahuel","parent":"23488685,NAVTEQ","officialNames":{"es":"Pudahuel"}},"geometry":{"type":"Point","coordinates":[-70.74745,-33.44464]},"id":"C23488337,NAVTEQ"},{"type":"Feature","properties":{"name":"Quilpué","parent":"23893776,NAVTEQ","officialNames":{"es":"Quilpué"}},"geometry":{"type":"Point","coordinates":[-71.4271,-33.05213]},"id":"C23488167,NAVTEQ"},{"type":"Feature","properties":{"name":"Quillota","parent":"23488506,NAVTEQ","officialNames":{"de":"Quillota","it":"Quillota","pt":"Quillota","fr":"Quillota","en":"Quillota","es":"Quillota","nl":"Quillota"}},"geometry":{"type":"Point","coordinates":[-71.24808,-32.87994]},"id":"C23489128,NAVTEQ"},{"type":"Feature","properties":{"name":"Porvenir","parent":"23489032,NAVTEQ","officialNames":{"de":"Porvenir","it":"Porvenir","pt":"Porvenir","fr":"Porvenir","en":"Porvenir","es":"Porvenir","nl":"Porvenir"}},"geometry":{"type":"Point","coordinates":[-70.36847,-53.29653]},"id":"C23488497,NAVTEQ"},{"type":"Feature","properties":{"name":"Cauquenes","parent":"23488436,NAVTEQ","officialNames":{"de":"Cauquenes","it":"Cauquenes","pt":"Cauquenes","fr":"Cauquenes","en":"Cauquenes","es":"Cauquenes","nl":"Cauquenes"}},"geometry":{"type":"Point","coordinates":[-72.32686,-35.96495]},"id":"C23488229,NAVTEQ"},{"type":"Feature","properties":{"name":"Valdivia","parent":"23488516,NAVTEQ","officialNames":{"de":"Valdivia","it":"Valdivia","pt":"Valdivia","fr":"Valdivia","en":"Valdivia","es":"Valdivia","nl":"Valdivia"}},"geometry":{"type":"Point","coordinates":[-73.24562,-39.81957]},"id":"C23488170,NAVTEQ"},{"type":"Feature","properties":{"name":"Ñuñoa","parent":"23488685,NAVTEQ","officialNames":{"es":"Ñuñoa"}},"geometry":{"type":"Point","coordinates":[-70.59366,-33.45523]},"id":"C23488171,NAVTEQ"},{"type":"Feature","properties":{"name":"Linares","parent":"23488939,NAVTEQ","officialNames":{"de":"Linares","it":"Linares","pt":"Linares","fr":"Linares","en":"Linares","es":"Linares","nl":"Linares"}},"geometry":{"type":"Point","coordinates":[-71.59976,-35.84675]},"id":"C23488951,NAVTEQ"},{"type":"Feature","properties":{"name":"Pedro Aguirre Cerda","parent":"23488685,NAVTEQ","officialNames":{"es":"Pedro Aguirre Cerda"}},"geometry":{"type":"Point","coordinates":[-70.66441,-33.47875]},"id":"C23488817,NAVTEQ"},{"type":"Feature","properties":{"name":"La Pintana","parent":"23488685,NAVTEQ","officialNames":{"es":"La Pintana"}},"geometry":{"type":"Point","coordinates":[-70.62861,-33.58617]},"id":"C23488596,NAVTEQ"},{"type":"Feature","properties":{"name":"Puerto Natales","parent":"23488465,NAVTEQ","officialNames":{"de":"Puerto Natales","it":"Puerto Natales","pt":"Puerto Natales","fr":"Puerto Natales","en":"Puerto Natales","es":"Puerto Natales","nl":"Puerto Natales"}},"geometry":{"type":"Point","coordinates":[-72.49668,-51.73675]},"id":"C23488744,NAVTEQ"},{"type":"Feature","properties":{"name":"Estación Central","parent":"23488685,NAVTEQ","officialNames":{"es":"Estación Central"}},"geometry":{"type":"Point","coordinates":[-70.67958,-33.45106]},"id":"C23488742,NAVTEQ"},{"type":"Feature","properties":{"name":"Colina","parent":"23488317,NAVTEQ","officialNames":{"de":"Colina","it":"Colina","pt":"Colina","fr":"Colina","en":"Colina","es":"Colina","nl":"Colina"}},"geometry":{"type":"Point","coordinates":[-70.70405,-33.27886]},"id":"C23488537,NAVTEQ"},{"type":"Feature","properties":{"name":"Coquimbo","parent":"23488711,NAVTEQ","officialNames":{"de":"Coquimbo","it":"Coquimbo","pt":"Coquimbo","fr":"Coquimbo","en":"Coquimbo","es":"Coquimbo","nl":"Coquimbo"}},"geometry":{"type":"Point","coordinates":[-71.33852,-29.9604]},"id":"C23489139,NAVTEQ"},{"type":"Feature","properties":{"name":"La Serena","parent":"23488711,NAVTEQ","officialNames":{"de":"La Serena","it":"La Serena","pt":"La Serena","fr":"La Serena","en":"La Serena","es":"La Serena","nl":"La Serena"}},"geometry":{"type":"Point","coordinates":[-71.25127,-29.90264]},"id":"C23489036,NAVTEQ"},{"type":"Feature","properties":{"name":"Osorno","parent":"23488415,NAVTEQ","officialNames":{"de":"Osorno","it":"Osorno","pt":"Osorno","fr":"Osorno","en":"Osorno","es":"Osorno","nl":"Osorno"}},"geometry":{"type":"Point","coordinates":[-73.1323,-40.57461]},"id":"C23488431,NAVTEQ"},{"type":"Feature","properties":{"name":"Antofagasta","parent":"23489067,NAVTEQ","officialNames":{"de":"Antofagasta","it":"Antofagasta","pt":"Antofagasta","fr":"Antofagasta","en":"Antofagasta","es":"Antofagasta","nl":"Antofagasta"}},"geometry":{"type":"Point","coordinates":[-70.39275,-23.63147]},"id":"C23488300,NAVTEQ"},{"type":"Feature","properties":{"name":"Macul","parent":"23488685,NAVTEQ","officialNames":{"es":"Macul"}},"geometry":{"type":"Point","coordinates":[-70.59932,-33.48461]},"id":"C23488362,NAVTEQ"},{"type":"Feature","properties":{"name":"San Fernando","parent":"23488267,NAVTEQ","officialNames":{"de":"San Fernando","it":"San Fernando","pt":"San Fernando","fr":"San Fernando","en":"San Fernando","es":"San Fernando","nl":"San Fernando"}},"geometry":{"type":"Point","coordinates":[-70.99058,-34.58584]},"id":"C23488679,NAVTEQ"},{"type":"Feature","properties":{"name":"Providencia","parent":"23488685,NAVTEQ","officialNames":{"es":"Providencia"}},"geometry":{"type":"Point","coordinates":[-70.61218,-33.42337]},"id":"C23488823,NAVTEQ"},{"type":"Feature","properties":{"name":"Puerto Montt","parent":"23488459,NAVTEQ","officialNames":{"de":"Puerto Montt","it":"Puerto Montt","pt":"Puerto Montt","fr":"Puerto Montt","en":"Puerto Montt","es":"Puerto Montt","nl":"Puerto Montt"}},"geometry":{"type":"Point","coordinates":[-72.95342,-41.46038]},"id":"C23488357,NAVTEQ"},{"type":"Feature","properties":{"name":"Copiapó","parent":"23488703,NAVTEQ","officialNames":{"de":"Copiapo","it":"Copiapó","pt":"Copiapó","fr":"Copiapo","en":"Copiapo","es":"Copiapó","nl":"Copiapo"}},"geometry":{"type":"Point","coordinates":[-70.33182,-27.36613]},"id":"C23488463,NAVTEQ"},{"type":"Feature","properties":{"name":"Hanga Roa","parent":"23744215,NAVTEQ","officialNames":{"de":"Hanga Roa","it":"Hanga Roa","pt":"Hanga Roa","fr":"Hanga Roa","en":"Hanga Roa","es":"Hanga Roa","nl":"Hanga Roa"}},"geometry":{"type":"Point","coordinates":[-109.42758,-27.14794]},"id":"C23744218,NAVTEQ"},{"type":"Feature","properties":{"name":"Tocopilla","parent":"23489138,NAVTEQ","officialNames":{"de":"Tocopilla","it":"Tocopilla","pt":"Tocopilla","fr":"Tocopilla","en":"Tocopilla","es":"Tocopilla","nl":"Tocopilla"}},"geometry":{"type":"Point","coordinates":[-70.19772,-22.08963]},"id":"C23488359,NAVTEQ"},{"type":"Feature","properties":{"name":"Viña del Mar","parent":"23488591,NAVTEQ","officialNames":{"es":"Viña del Mar"}},"geometry":{"type":"Point","coordinates":[-71.55242,-33.02442]},"id":"C23488920,NAVTEQ"},{"type":"Feature","properties":{"name":"Maipú","parent":"23488685,NAVTEQ","officialNames":{"es":"Maipú"}},"geometry":{"type":"Point","coordinates":[-70.75738,-33.51012]},"id":"C23489084,NAVTEQ"},{"type":"Feature","properties":{"name":"Castro","parent":"23488659,NAVTEQ","officialNames":{"de":"Castro","it":"Castro","pt":"Castro","fr":"Castro","en":"Castro","es":"Castro","nl":"Castro"}},"geometry":{"type":"Point","coordinates":[-73.76201,-42.48022]},"id":"C23489105,NAVTEQ"},{"type":"Feature","properties":{"name":"Melipilla","parent":"23489005,NAVTEQ","officialNames":{"de":"Melipilla","it":"Melipilla","pt":"Melipilla","fr":"Melipilla","en":"Melipilla","es":"Melipilla","nl":"Melipilla"}},"geometry":{"type":"Point","coordinates":[-71.21327,-33.68736]},"id":"C23488250,NAVTEQ"},{"type":"Feature","properties":{"name":"Chaitén","parent":"23489076,NAVTEQ","officialNames":{"de":"Chaiten","it":"Chaitén","pt":"Chaitén","fr":"Chaiten","en":"Chaiten","es":"Chaitén","nl":"Chaiten"}},"geometry":{"type":"Point","coordinates":[-72.70774,-42.91339]},"id":"C23488721,NAVTEQ"},{"type":"Feature","properties":{"name":"Lo Prado","parent":"23488685,NAVTEQ","officialNames":{"es":"Lo Prado"}},"geometry":{"type":"Point","coordinates":[-70.71886,-33.44372]},"id":"C23489089,NAVTEQ"},{"type":"Feature","properties":{"name":"San Felipe","parent":"23488251,NAVTEQ","officialNames":{"de":"San Felipe","it":"San Felipe","pt":"San Felipe","fr":"San Felipe","en":"San Felipe","es":"San Felipe","nl":"San Felipe"}},"geometry":{"type":"Point","coordinates":[-70.72615,-32.74975]},"id":"C23488216,NAVTEQ"},{"type":"Feature","properties":{"name":"Conchalí","parent":"23488685,NAVTEQ","officialNames":{"es":"Conchalí"}},"geometry":{"type":"Point","coordinates":[-70.67104,-33.3966]},"id":"C23488561,NAVTEQ"},{"type":"Feature","properties":{"name":"Puerto Williams","parent":"23488350,NAVTEQ","officialNames":{"de":"Puerto Williams","it":"Puerto Williams","pt":"Puerto Williams","fr":"Puerto Williams","en":"Puerto Williams","es":"Puerto Williams","nl":"Puerto Williams"}},"geometry":{"type":"Point","coordinates":[-67.60667,-54.92977]},"id":"C23488145,NAVTEQ"},{"type":"Feature","properties":{"name":"Concepción","parent":"23488650,NAVTEQ","officialNames":{"de":"Concepcion","it":"Concepción","pt":"Concepción","fr":"Concepcion","en":"Concepcion","es":"Concepción","nl":"Concepcion"}},"geometry":{"type":"Point","coordinates":[-73.05059,-36.81888]},"id":"C23488524,NAVTEQ"},{"type":"Feature","properties":{"name":"La Granja","parent":"23488685,NAVTEQ","officialNames":{"es":"La Granja"}},"geometry":{"type":"Point","coordinates":[-70.63352,-33.54273]},"id":"C23488482,NAVTEQ"},{"type":"Feature","properties":{"name":"Quilicura","parent":"23488685,NAVTEQ","officialNames":{"es":"Quilicura"}},"geometry":{"type":"Point","coordinates":[-70.73419,-33.37027]},"id":"C23488481,NAVTEQ"},{"type":"Feature","properties":{"name":"El Bosque","parent":"23488685,NAVTEQ","officialNames":{"es":"El Bosque"}},"geometry":{"type":"Point","coordinates":[-70.67416,-33.55318]},"id":"C23488144,NAVTEQ"},{"type":"Feature","properties":{"name":"Ovalle","parent":"23488849,NAVTEQ","officialNames":{"de":"Ovalle","it":"Ovalle","pt":"Ovalle","fr":"Ovalle","en":"Ovalle","es":"Ovalle","nl":"Ovalle"}},"geometry":{"type":"Point","coordinates":[-71.19887,-30.59871]},"id":"C23488196,NAVTEQ"},{"type":"Feature","properties":{"name":"Peñalolén","parent":"23488685,NAVTEQ","officialNames":{"es":"Peñalolén"}},"geometry":{"type":"Point","coordinates":[-70.57984,-33.48993]},"id":"C23488290,NAVTEQ"},{"type":"Feature","properties":{"name":"Chañaral","parent":"23488340,NAVTEQ","officialNames":{"de":"Chañaral","it":"Chañaral","pt":"Chañaral","fr":"Chañaral","en":"Chañaral","es":"Chañaral","nl":"Chañaral"}},"geometry":{"type":"Point","coordinates":[-70.61353,-26.33935]},"id":"C23488477,NAVTEQ"},{"type":"Feature","properties":{"name":"Coihaique","parent":"23488646,NAVTEQ","officialNames":{"de":"Coihaique","it":"Coihaique","pt":"Coihaique","fr":"Coihaique","en":"Coihaique","es":"Coihaique","nl":"Coihaique"}},"geometry":{"type":"Point","coordinates":[-72.06244,-45.57066]},"id":"C23488152,NAVTEQ"},{"type":"Feature","properties":{"name":"Angol","parent":"23488922,NAVTEQ","officialNames":{"de":"Angol","it":"Angol","pt":"Angol","fr":"Angol","en":"Angol","es":"Angol","nl":"Angol"}},"geometry":{"type":"Point","coordinates":[-72.70487,-37.79877]},"id":"C23488346,NAVTEQ"},{"type":"Feature","properties":{"name":"Lo Espejo","parent":"23488685,NAVTEQ","officialNames":{"es":"Lo Espejo"}},"geometry":{"type":"Point","coordinates":[-70.69218,-33.5347]},"id":"C23488662,NAVTEQ"},{"type":"Feature","properties":{"name":"Talagante","parent":"23489048,NAVTEQ","officialNames":{"de":"Talagante","it":"Talagante","pt":"Talagante","fr":"Talagante","en":"Talagante","es":"Talagante","nl":"Talagante"}},"geometry":{"type":"Point","coordinates":[-70.95087,-33.6872]},"id":"C23488387,NAVTEQ"},{"type":"Feature","properties":{"name":"Pozo Almonte","parent":"23488966,NAVTEQ","officialNames":{"de":"Pozo Almonte","it":"Pozo Almonte","pt":"Pozo Almonte","fr":"Pozo Almonte","en":"Pozo Almonte","es":"Pozo Almonte","nl":"Pozo Almonte"}},"geometry":{"type":"Point","coordinates":[-69.78607,-20.25707]},"id":"C23488661,NAVTEQ"},{"type":"Feature","properties":{"name":"La Florida","parent":"23488685,NAVTEQ","officialNames":{"es":"La Florida"}},"geometry":{"type":"Point","coordinates":[-70.59856,-33.52188]},"id":"C23488978,NAVTEQ"},{"type":"Feature","properties":{"name":"Puerto Aisén","parent":"23488371,NAVTEQ","officialNames":{"de":"Puerto Aisen","it":"Puerto Aisén","pt":"Puerto Aisén","fr":"Puerto Aisen","en":"Puerto Aisen","es":"Puerto Aisén","nl":"Puerto Aisen"}},"geometry":{"type":"Point","coordinates":[-72.79476,-45.4557]},"id":"C23488245,NAVTEQ"},{"type":"Feature","properties":{"name":"Talca","parent":"23488882,NAVTEQ","officialNames":{"de":"Talca","it":"Talca","pt":"Talca","fr":"Talca","en":"Talca","es":"Talca","nl":"Talca"}},"geometry":{"type":"Point","coordinates":[-71.65647,-35.43004]},"id":"C23488666,NAVTEQ"},{"type":"Feature","properties":{"name":"Arica","parent":"23489129,NAVTEQ","officialNames":{"de":"Arica","it":"Arica","pt":"Arica","fr":"Arica","en":"Arica","es":"Arica","nl":"Arica"}},"geometry":{"type":"Point","coordinates":[-70.30676,-18.47329]},"id":"C23488665,NAVTEQ"},{"type":"Feature","properties":{"name":"Valparaíso","parent":"23488591,NAVTEQ","officialNames":{"de":"Valparaiso","it":"Valparaíso","pt":"Valparaíso","fr":"Valparaiso","en":"Valparaiso","es":"Valparaíso","nl":"Valparaiso"}},"geometry":{"type":"Point","coordinates":[-71.62027,-33.04538]},"id":"C23488243,NAVTEQ"}]}