{"type":"FeatureCollection","features":[{"type":"Feature","properties":{"name":"Pardubice","parent":"20440098,NAVTEQ","officialNames":{"sk":"Pardubice","da":"Pardubice","it":"Pardubice","no":"Pardubice","hu":"Pardubice","cs":"Pardubice","de":"Pardubitz","el":"Παρντουμπιτσε","fi":"Pardubice","pl":"Pardubice","pt":"Pardubice","sv":"Pardubice","fr":"Pardubice","en":"Pardubice","ru":"Пардубице","es":"Pardubice","nl":"Pardubice"}},"geometry":{"type":"Point","coordinates":[15.77852,50.0372]},"id":"C20440277,NAVTEQ"},{"type":"Feature","properties":{"name":"Ústí nad Labem","parent":"20447117,NAVTEQ","officialNames":{"sk":"Usti nad Labem","da":"Usti Nad Labem","it":"Usti Nad Labem","no":"Usti Nad Labem","hu":"Usti Nad Labem","cs":"Ústí nad Labem","de":"Aussig","el":"Ουστι Ναντ Λαμπεμ","fi":"Usti Nad Labem","pl":"Ujście nad Łabą","pt":"Usti Nad Labem","sv":"Usti Nad Labem","fr":"Aussig-sur-Elbe","en":"Usti Nad Labem","ru":"Усти-Над-Лабем","es":"Usti Nad Labem","nl":"Usti Nad Labem"}},"geometry":{"type":"Point","coordinates":[14.04544,50.6617]},"id":"C20447176,NAVTEQ"},{"type":"Feature","properties":{"name":"Brno","parent":"20429835,NAVTEQ","officialNames":{"sk":"Brno","da":"Brno","it":"Brno","no":"Brno","hu":"Brünn","cs":"Brno","de":"Brünn","el":"Μπρνο","fi":"Brno","pl":"Brno","pt":"Brno","sv":"Brno","fr":"Brno","en":"Brno","ru":"Брно","es":"Brno","nl":"Brno"}},"geometry":{"type":"Point","coordinates":[16.60361,49.19729]},"id":"C20429837,NAVTEQ"},{"type":"Feature","properties":{"name":"České Budějovice","parent":"20431185,NAVTEQ","officialNames":{"sk":"Ceske Budejovice","da":"Ceske Budejovice","it":"Ceske Budejovice","no":"Ceske Budejovice","hu":"Ceske Budejovice","cs":"České Budějovice","de":"Budweis","el":"Τσεσκε Μπουντεγιοβιτσε","fi":"Ceske Budejovice","pl":"Czeskie Budziejowice","pt":"Ceske Budejovice","sv":"Ceske Budejovice","fr":"Ceske Budejovice","en":"Budweis","ru":"Ческе-Будеёвице","es":"Ceske Budejovice","nl":"Ceske Budejovice"}},"geometry":{"type":"Point","coordinates":[14.47937,48.9754]},"id":"C20431220,NAVTEQ"},{"type":"Feature","properties":{"name":"Hradec Králové","parent":"20435658,NAVTEQ","officialNames":{"sk":"Hradec Kralove","da":"Hradec Kralove","it":"Hradec Kralove","no":"Hradec Kralove","hu":"Hradec Kralove","cs":"Hradec Králové","de":"Königgrätz","el":"Χραντεκ Κραλοβε","fi":"Hradec Kralove","pl":"Hradec Królowej","pt":"Hradec Kralove","sv":"Hradec Kralove","fr":"Hradec Kralove","en":"Hradec Kralove","ru":"Градец-Кралове","es":"Hradec Kralove","nl":"Hradec Kralove"}},"geometry":{"type":"Point","coordinates":[15.83093,50.21129]},"id":"C20435720,NAVTEQ"},{"type":"Feature","properties":{"name":"Praha","parent":"20442648,NAVTEQ","officialNames":{"sk":"Praha","da":"Prag","it":"Praga","no":"Praha","hu":"Prága","cs":"Praha","de":"Prag","el":"Πραγα","fi":"Prahan","pl":"Praga","pt":"Praga","sv":"Prag","fr":"Prague","en":"Prague","ru":"Прага","es":"Praga","nl":"Praag"}},"geometry":{"type":"Point","coordinates":[14.43322,50.07908]},"id":"C20442649,NAVTEQ"},{"type":"Feature","properties":{"name":"Jihlava","parent":"20433423,NAVTEQ","officialNames":{"sk":"Jihlava","da":"Jihlava","it":"Jihlava","no":"Jihlava","hu":"Jihlava","cs":"Jihlava","de":"Iglau","el":"Γιλαβα","fi":"Jihlava","pl":"Igława","pt":"Jihlava","sv":"Jihlava","fr":"Jihlava","en":"Jihlava","ru":"Йиглава","es":"Jihlava","nl":"Jihlava"}},"geometry":{"type":"Point","coordinates":[15.59151,49.39371]},"id":"C20433530,NAVTEQ"},{"type":"Feature","properties":{"name":"Olomouc","parent":"20437734,NAVTEQ","officialNames":{"sk":"Olomouc","da":"Olomouc","it":"Olomouc","no":"Olomouc","hu":"Alamóc","cs":"Olomouc","de":"Olmütz","el":"Ολομουτς","fi":"Olomouc","pl":"Ołomuniec","pt":"Olomouc","sv":"Olomouc","fr":"Olomouc","en":"Olomouc","ru":"Оломоуц","es":"Olomouc","nl":"Olomouc"}},"geometry":{"type":"Point","coordinates":[17.24904,49.59243]},"id":"C20437910,NAVTEQ"},{"type":"Feature","properties":{"name":"Ostrava","parent":"20448216,NAVTEQ","officialNames":{"sk":"Ostrava","da":"Ostrava","it":"Ostrava","no":"Ostrava","hu":"Ostrava","cs":"Ostrava","de":"Mährisch Ostrau","el":"Οστραβα","fi":"Ostrava","pl":"Ostrawa","pt":"Ostrava","sv":"Ostrava","fr":"Ostrava","en":"Ostrava","ru":"Острава","es":"Ostrava","nl":"Ostrava"}},"geometry":{"type":"Point","coordinates":[18.28818,49.83917]},"id":"C20448242,NAVTEQ"},{"type":"Feature","properties":{"name":"Plzeň","parent":"20441977,NAVTEQ","officialNames":{"sk":"Plzen","da":"Plzen","it":"Pilsen","no":"Plzen","hu":"Pilsen","cs":"Plzeň","de":"Pilsen","el":"Πιλζεν","fi":"Plzen","pl":"Pilzno","pt":"Plzen","sv":"Plzen","fr":"Plzen","en":"Pilsen","ru":"Пльзень","es":"Pilsen","nl":"Pilsen"}},"geometry":{"type":"Point","coordinates":[13.3819,49.74653]},"id":"C20441979,NAVTEQ"},{"type":"Feature","properties":{"name":"Karlovy Vary","parent":"20435376,NAVTEQ","officialNames":{"sk":"Karlovy Vary","da":"Karlovy Vary","it":"Karlovy Vary","no":"Karlsbad","hu":"Karlovy Vary","cs":"Karlovy Vary","de":"Karlsbad","el":"Καρλοβυ Βαρυ","fi":"Karlovy Vary","pl":"Karlowe Wary","pt":"Karlovy Vary","sv":"Karlovy Vary","fr":"Karlovy Vary","en":"Carlsbad","ru":"Карловы Вары","es":"Carlsbad","nl":"Karslbad"}},"geometry":{"type":"Point","coordinates":[12.86495,50.22838]},"id":"C20435438,NAVTEQ"},{"type":"Feature","properties":{"name":"Zlín","parent":"20447842,NAVTEQ","officialNames":{"sk":"Zlín","da":"Zlin","it":"Zlin","no":"Zlin","hu":"Zlin","cs":"Zlín","de":"Zlin","el":"Ζλιν","fi":"Zlin","pl":"Zlin","pt":"Zlin","sv":"Zlin","fr":"Zlin","en":"Zlin","ru":"Злин","es":"Zlin","nl":"Zlin"}},"geometry":{"type":"Point","coordinates":[17.66979,49.2256]},"id":"C20448099,NAVTEQ"},{"type":"Feature","properties":{"name":"Liberec","parent":"20437292,NAVTEQ","officialNames":{"sk":"Liberec","da":"Liberec","it":"Liberec","no":"Liberec","hu":"Liberec","cs":"Liberec","de":"Reichenberg","el":"Λιμπερετς","fi":"Liberec","pl":"Liberec","pt":"Liberec","sv":"Liberec","fr":"Liberec","en":"Liberec","ru":"Либерец","es":"Liberec","nl":"Liberec"}},"geometry":{"type":"Point","coordinates":[15.058,50.77009]},"id":"C20437387,NAVTEQ"}]}