{"type":"FeatureCollection","features":[{"type":"Feature","properties":{"name":"San Juan de la Maguana","parent":"23807650,NAVTEQ","officialNames":{"es":"San Juan de la Maguana"}},"geometry":{"type":"Point","coordinates":[-71.23086,18.80641]},"id":"C23807977,NAVTEQ"},{"type":"Feature","properties":{"name":"Santo Domingo Oeste","parent":"23807759,NAVTEQ","officialNames":{"es":"Santo Domingo Oeste"}},"geometry":{"type":"Point","coordinates":[-69.99946,18.48342]},"id":"C23807460,NAVTEQ"},{"type":"Feature","properties":{"name":"La Vega","parent":"23807478,NAVTEQ","officialNames":{"es":"La Vega"}},"geometry":{"type":"Point","coordinates":[-70.52183,19.22521]},"id":"C23807693,NAVTEQ"},{"type":"Feature","properties":{"name":"San Francisco de Macorís","parent":"23807500,NAVTEQ","officialNames":{"es":"San Francisco de Macorís"}},"geometry":{"type":"Point","coordinates":[-70.25314,19.29783]},"id":"C23807760,NAVTEQ"},{"type":"Feature","properties":{"name":"San Cristobal","parent":"23807625,NAVTEQ","officialNames":{"es":"San Cristobal"}},"geometry":{"type":"Point","coordinates":[-70.10808,18.41309]},"id":"C23807963,NAVTEQ"},{"type":"Feature","properties":{"name":"Santiago","parent":"23807666,NAVTEQ","officialNames":{"de":"Santiago","fr":"Saint-Jacques des Chevaliers","en":"Santiago","it":"Santiago","es":"Santiago","nl":"Santiago"}},"geometry":{"type":"Point","coordinates":[-70.70743,19.45367]},"id":"C23807798,NAVTEQ"},{"type":"Feature","properties":{"name":"Santo Domingo Norte","parent":"23807752,NAVTEQ","officialNames":{"es":"Santo Domingo Norte"}},"geometry":{"type":"Point","coordinates":[-69.90015,18.55166]},"id":"C23807463,NAVTEQ"},{"type":"Feature","properties":{"name":"Santo Domingo Este","parent":"23807758,NAVTEQ","officialNames":{"es":"Santo Domingo Este"}},"geometry":{"type":"Point","coordinates":[-69.85679,18.50536]},"id":"C23807466,NAVTEQ"},{"type":"Feature","properties":{"name":"Puerto Plata","parent":"23807571,NAVTEQ","officialNames":{"es":"Puerto Plata"}},"geometry":{"type":"Point","coordinates":[-70.69453,19.78778]},"id":"C23807901,NAVTEQ"},{"type":"Feature","properties":{"name":"San Pedro de Macorís","parent":"23807640,NAVTEQ","officialNames":{"de":"San Pedro de Macoris","fr":"San Pedro de Macoris","en":"San Pedro de Macoris","it":"San Pedro De Macorís","es":"San Pedro de Macorís","nl":"San Pedro de Macoris"}},"geometry":{"type":"Point","coordinates":[-69.29916,18.46579]},"id":"C23807841,NAVTEQ"},{"type":"Feature","properties":{"name":"Baní","parent":"23807545,NAVTEQ","officialNames":{"es":"Baní"}},"geometry":{"type":"Point","coordinates":[-70.33373,18.28042]},"id":"C23807822,NAVTEQ"},{"type":"Feature","properties":{"name":"La Romana","parent":"23807489,NAVTEQ","officialNames":{"de":"La Romana","fr":"La Romana","en":"La Romana","it":"La Romana","es":"La Romana","nl":"La Romana"}},"geometry":{"type":"Point","coordinates":[-68.96918,18.42556]},"id":"C23807701,NAVTEQ"},{"type":"Feature","properties":{"name":"Higüey","parent":"23807483,NAVTEQ","officialNames":{"es":"Higüey"}},"geometry":{"type":"Point","coordinates":[-68.71406,18.61664]},"id":"C23807730,NAVTEQ"},{"type":"Feature","properties":{"name":"Santo Domingo","parent":"23807618,NAVTEQ","officialNames":{"de":"Santo Domingo","fr":"Saint-Domingue","en":"Santo Domingo","it":"Santo Domingo","es":"Santo Domingo","nl":"Santo Domingo"}},"geometry":{"type":"Point","coordinates":[-69.89142,18.47188]},"id":"C23807749,NAVTEQ"},{"type":"Feature","properties":{"name":"Los Alcarrizos","parent":"23807755,NAVTEQ","officialNames":{"de":"Los Alcarrizos","fr":"Los Alcarrizos","en":"Los Alcarrizos","it":"Los Alcarrizos","es":"Los Alcarrizos","nl":"Los Alcarrizos"}},"geometry":{"type":"Point","coordinates":[-70.02682,18.52485]},"id":"C23807453,NAVTEQ"},{"type":"Feature","properties":{"name":"Bonao","parent":"23807736,NAVTEQ","officialNames":{"es":"Bonao"}},"geometry":{"type":"Point","coordinates":[-70.40818,18.93313]},"id":"C23807989,NAVTEQ"},{"type":"Feature","properties":{"name":"Moca","parent":"23807485,NAVTEQ","officialNames":{"es":"Moca"}},"geometry":{"type":"Point","coordinates":[-70.52795,19.3993]},"id":"C23807860,NAVTEQ"}]}