{"type":"FeatureCollection","features":[{"type":"Feature","properties":{"name":"Cuenca","parent":"23834281,NAVTEQ","officialNames":{"de":"Cuenca","fr":"Cuenca","en":"Cuenca","it":"Cuenca","es":"Cuenca","nl":"Cuenca"}},"geometry":{"type":"Point","coordinates":[-78.99411,-2.89305]},"id":"C23834588,NAVTEQ"},{"type":"Feature","properties":{"name":"Guayaquil","parent":"23834480,NAVTEQ","officialNames":{"de":"Guayaquil","fr":"Guayaquil","en":"Guayaquil","it":"Guayaquil","es":"Guayaquil","nl":"Guayaquil"}},"geometry":{"type":"Point","coordinates":[-79.92838,-2.15955]},"id":"C23835405,NAVTEQ"},{"type":"Feature","properties":{"name":"Manta","parent":"23834496,NAVTEQ","officialNames":{"es":"Manta"}},"geometry":{"type":"Point","coordinates":[-80.76854,-1.02318]},"id":"C23834833,NAVTEQ"},{"type":"Feature","properties":{"name":"Quito","parent":"23834308,NAVTEQ","officialNames":{"de":"Quito","fr":"Quito","en":"Quito","it":"Quito","es":"Quito","nl":"Quito"}},"geometry":{"type":"Point","coordinates":[-78.50874,-0.20567]},"id":"C23835212,NAVTEQ"},{"type":"Feature","properties":{"name":"Portoviejo","parent":"23834225,NAVTEQ","officialNames":{"de":"Portoviejo","fr":"Portoviejo","en":"Portoviejo","it":"Portoviejo","es":"Portoviejo","nl":"Portoviejo"}},"geometry":{"type":"Point","coordinates":[-80.43918,-1.08114]},"id":"C23835192,NAVTEQ"},{"type":"Feature","properties":{"name":"Milagro","parent":"23834555,NAVTEQ","officialNames":{"es":"Milagro"}},"geometry":{"type":"Point","coordinates":[-79.58056,-2.11864]},"id":"C23834866,NAVTEQ"},{"type":"Feature","properties":{"name":"Loja","parent":"23834530,NAVTEQ","officialNames":{"es":"Loja"}},"geometry":{"type":"Point","coordinates":[-79.20297,-4.02135]},"id":"C23835020,NAVTEQ"},{"type":"Feature","properties":{"name":"Quevedo","parent":"23834484,NAVTEQ","officialNames":{"es":"Quevedo"}},"geometry":{"type":"Point","coordinates":[-79.46577,-1.01725]},"id":"C23835179,NAVTEQ"},{"type":"Feature","properties":{"name":"Ibarra","parent":"23834249,NAVTEQ","officialNames":{"es":"Ibarra"}},"geometry":{"type":"Point","coordinates":[-78.10913,0.37245]},"id":"C23835071,NAVTEQ"},{"type":"Feature","properties":{"name":"Santo Domingo","parent":"23834314,NAVTEQ","officialNames":{"de":"Santo Domingo","fr":"Santo Domingo","en":"Santo Domingo","it":"Santo Domingo","es":"Santo Domingo","nl":"Santo Domingo"}},"geometry":{"type":"Point","coordinates":[-79.1166,-0.30959]},"id":"C23835339,NAVTEQ"},{"type":"Feature","properties":{"name":"Eloy Alfaro","parent":"23834576,NAVTEQ","officialNames":{"es":"Eloy Alfaro"}},"geometry":{"type":"Point","coordinates":[-79.78002,-2.21755]},"id":"C23834799,NAVTEQ"},{"type":"Feature","properties":{"name":"Machala","parent":"23834563,NAVTEQ","officialNames":{"de":"Machala","fr":"Machala","en":"Machala","it":"Machala","es":"Machala","nl":"Machala"}},"geometry":{"type":"Point","coordinates":[-79.96778,-3.26655]},"id":"C23834901,NAVTEQ"},{"type":"Feature","properties":{"name":"Ambato","parent":"23834313,NAVTEQ","officialNames":{"es":"Ambato"}},"geometry":{"type":"Point","coordinates":[-78.61044,-1.26262]},"id":"C23834675,NAVTEQ"}]}