{"type":"FeatureCollection","features":[{"type":"Feature","properties":{"name":"Dos Hermanas","parent":"20221893,NAVTEQ","officialNames":{"es":"Dos Hermanas"}},"geometry":{"type":"Point","coordinates":[-5.92813,37.2829]},"id":"C20236356,NAVTEQ"},{"type":"Feature","properties":{"name":"Granada","parent":"20221889,NAVTEQ","officialNames":{"fr":"Grenade","ru":"Гранада","el":"Γραναδα","es":"Granada"}},"geometry":{"type":"Point","coordinates":[-3.60542,37.17039]},"id":"C20234626,NAVTEQ"},{"type":"Feature","properties":{"name":"Lleida","parent":"20224864,NAVTEQ","officialNames":{"pt":"Lérida","ru":"Лерида","ca":"Lleida","el":"Γεϊδα","es":"Lérida"}},"geometry":{"type":"Point","coordinates":[0.62712,41.61451]},"id":"C20225353,NAVTEQ"},{"type":"Feature","properties":{"name":"Marbella","parent":"20221892,NAVTEQ","officialNames":{"es":"Marbella"}},"geometry":{"type":"Point","coordinates":[-4.8833,36.50799]},"id":"C20236092,NAVTEQ"},{"type":"Feature","properties":{"name":"Algeciras","parent":"20221887,NAVTEQ","officialNames":{"es":"Algeciras"}},"geometry":{"type":"Point","coordinates":[-5.45265,36.1276]},"id":"C20233639,NAVTEQ"},{"type":"Feature","properties":{"name":"Pontevedra","parent":"20226795,NAVTEQ","officialNames":{"pl":"Pontewedra","gl":"Pontevedra","ru":"Понтеведра","el":"Ποντεβεντρα"}},"geometry":{"type":"Point","coordinates":[-8.65237,42.43246]},"id":"C20322402,NAVTEQ"},{"type":"Feature","properties":{"name":"Córdoba","parent":"20221888,NAVTEQ","officialNames":{"de":"Cordoba","da":"Cordoba","it":"Cordova","el":"Κορδοβα","pt":"Córdova","fr":"Cordoue","ru":"Кордова","es":"Córdoba"}},"geometry":{"type":"Point","coordinates":[-4.7784,37.87794]},"id":"C20234010,NAVTEQ"},{"type":"Feature","properties":{"name":"Guadalajara","parent":"20221907,NAVTEQ","officialNames":{"el":"Γκουανταλαχαρα","es":"Guadalajara","ru":"Гуадалахара"}},"geometry":{"type":"Point","coordinates":[-3.16422,40.62979]},"id":"C20295678,NAVTEQ"},{"type":"Feature","properties":{"name":"Valencia","parent":"20226787,NAVTEQ","officialNames":{"ca":"València","el":"Βαλενθια","pl":"Walencja","pt":"Valência","fr":"Valence","ru":"Валенсия","es":"Valencia","cs":"Valencie"}},"geometry":{"type":"Point","coordinates":[-0.37682,39.46919]},"id":"C20250555,NAVTEQ"},{"type":"Feature","properties":{"name":"Soria","parent":"20221916,NAVTEQ","officialNames":{"el":"Σορια","es":"Soria","ru":"Сория"}},"geometry":{"type":"Point","coordinates":[-2.4692,41.76464]},"id":"C20312500,NAVTEQ"},{"type":"Feature","properties":{"name":"Huesca","parent":"20221895,NAVTEQ","officialNames":{"ca":"Osca","ru":"Уэска","el":"Χουεσκα","es":"Huesca"}},"geometry":{"type":"Point","coordinates":[-0.40831,42.13656]},"id":"C20361300,NAVTEQ"},{"type":"Feature","properties":{"name":"Valladolid","parent":"20221917,NAVTEQ","officialNames":{"pt":"Valhadolide","ru":"Вальядолид","el":"Βαλαδολιντ","es":"Valladolid"}},"geometry":{"type":"Point","coordinates":[-4.73212,41.65419]},"id":"C20313361,NAVTEQ"},{"type":"Feature","properties":{"name":"Oviedo","parent":"20226809,NAVTEQ","officialNames":{"el":"Οβιεδο","es":"Oviedo","ru":"Овьедо"}},"geometry":{"type":"Point","coordinates":[-5.84762,43.36267]},"id":"C20326667,NAVTEQ"},{"type":"Feature","properties":{"name":"Cuenca","parent":"20221906,NAVTEQ","officialNames":{"el":"Κουενσα","es":"Cuenca","ru":"Куэнка"}},"geometry":{"type":"Point","coordinates":[-2.1363,40.07202]},"id":"C20294503,NAVTEQ"},{"type":"Feature","properties":{"name":"Ourense","parent":"20226794,NAVTEQ","officialNames":{"gl":"Ourense","da":"Orense","ru":"Оренсе","el":"Ουρενσε","es":"Orense"}},"geometry":{"type":"Point","coordinates":[-7.86611,42.33894]},"id":"C20324570,NAVTEQ"},{"type":"Feature","properties":{"name":"Badalona","parent":"20215742,NAVTEQ","officialNames":{"ca":"Badalona"}},"geometry":{"type":"Point","coordinates":[2.24506,41.45034]},"id":"C20222015,NAVTEQ"},{"type":"Feature","properties":{"name":"Santa Coloma de Gramenet","parent":"20215742,NAVTEQ","officialNames":{"ca":"Santa Coloma de Gramenet"}},"geometry":{"type":"Point","coordinates":[2.20904,41.45112]},"id":"C20216002,NAVTEQ"},{"type":"Feature","properties":{"name":"Salamanca","parent":"20221914,NAVTEQ","officialNames":{"pl":"Salamanka","fr":"Salamanque","ru":"Саламанка","el":"Σαλαμανκα","es":"Salamanca"}},"geometry":{"type":"Point","coordinates":[-5.66385,40.96422]},"id":"C20310052,NAVTEQ"},{"type":"Feature","properties":{"name":"Tarragona","parent":"20226116,NAVTEQ","officialNames":{"fr":"Tarragone","ca":"Tarragona","ru":"Таррагона","el":"Ταρραγκονα"}},"geometry":{"type":"Point","coordinates":[1.2541,41.11693]},"id":"C20226666,NAVTEQ"},{"type":"Feature","properties":{"name":"Huelva","parent":"20221890,NAVTEQ","officialNames":{"el":"Χουελβα","es":"Huelva","ru":"Уэльва"}},"geometry":{"type":"Point","coordinates":[-6.94523,37.25455]},"id":"C20235204,NAVTEQ"},{"type":"Feature","properties":{"name":"Palma","parent":"20226797,NAVTEQ","officialNames":{"el":"Παλμα","ru":"Пальма","ca":"Palma"}},"geometry":{"type":"Point","coordinates":[2.64694,39.57148]},"id":"C20275719,NAVTEQ"},{"type":"Feature","properties":{"name":"León","parent":"20221912,NAVTEQ","officialNames":{"el":"Λεον","es":"León","ru":"Леон"}},"geometry":{"type":"Point","coordinates":[-5.57166,42.59813]},"id":"C20305706,NAVTEQ"},{"type":"Feature","properties":{"name":"Terrassa","parent":"20215742,NAVTEQ","officialNames":{"ca":"Terrassa"}},"geometry":{"type":"Point","coordinates":[2.00862,41.56091]},"id":"C20223382,NAVTEQ"},{"type":"Feature","properties":{"name":"l\u0027Hospitalet de Llobregat","parent":"20215742,NAVTEQ","officialNames":{"ca":"l\u0027Hospitalet de Llobregat"}},"geometry":{"type":"Point","coordinates":[2.10549,41.36269]},"id":"C20222473,NAVTEQ"},{"type":"Feature","properties":{"name":"A Coruña","parent":"20226792,NAVTEQ","officialNames":{"de":"Coruna","gl":"A Coruña","it":"Corogna","el":"Λα Κορουνα","pt":"Corunha","pl":"A Coruna","sv":"La Coruña","fr":"La Corogne","ru":"Ла-Корунья","es":"La Coruña"}},"geometry":{"type":"Point","coordinates":[-8.39674,43.37015]},"id":"C20322074,NAVTEQ"},{"type":"Feature","properties":{"name":"Santa Cruz de Tenerife","parent":"20221900,NAVTEQ","officialNames":{"es":"Santa Cruz de Tenerife"}},"geometry":{"type":"Point","coordinates":[-16.26451,28.46037]},"id":"C20273462,NAVTEQ"},{"type":"Feature","properties":{"name":"Bilbao","parent":"20226807,NAVTEQ","officialNames":{"pt":"Bilbau","eu":"Bilbo","ru":"Бильбао","el":"Μπιλμπαο","es":"Bilbao"}},"geometry":{"type":"Point","coordinates":[-2.94612,43.26865]},"id":"C20286632,NAVTEQ"},{"type":"Feature","properties":{"name":"Barcelona","parent":"20215742,NAVTEQ","officialNames":{"fr":"Barcelone","it":"Barcellona","ru":"Барселона","ca":"Barcelona","el":"Βαρκελωνη"}},"geometry":{"type":"Point","coordinates":[2.16874,41.38558]},"id":"C20215801,NAVTEQ"},{"type":"Feature","properties":{"name":"Las Palmas de Gran Canaria","parent":"20221899,NAVTEQ","officialNames":{"es":"Las Palmas de Gran Canaria"}},"geometry":{"type":"Point","coordinates":[-15.43968,28.13021]},"id":"C20272002,NAVTEQ"},{"type":"Feature","properties":{"name":"Murcia","parent":"20226811,NAVTEQ","officialNames":{"pt":"Múrcia","fr":"Murcie","ru":"Мурсия","el":"Μουρθια","es":"Murcia"}},"geometry":{"type":"Point","coordinates":[-1.13025,37.98296]},"id":"C20288733,NAVTEQ"},{"type":"Feature","properties":{"name":"Ceuta","parent":"20666723,NAVTEQ","officialNames":{"fr":"Ceute","es":"Ceuta"}},"geometry":{"type":"Point","coordinates":[-5.31573,35.88916]},"id":"C20666735,NAVTEQ"},{"type":"Feature","properties":{"name":"Melilla","parent":"20666724,NAVTEQ","officialNames":{"fr":"Melille","es":"Melilla"}},"geometry":{"type":"Point","coordinates":[-2.93791,35.29125]},"id":"C20666737,NAVTEQ"},{"type":"Feature","properties":{"name":"Palencia","parent":"20221913,NAVTEQ","officialNames":{"pt":"Palência","ru":"Паленсия","el":"Παλενθια","es":"Palencia"}},"geometry":{"type":"Point","coordinates":[-4.53926,42.01043]},"id":"C20308163,NAVTEQ"},{"type":"Feature","properties":{"name":"Cádiz","parent":"20221887,NAVTEQ","officialNames":{"de":"Cadiz","it":"Cadice","el":"Καντιθ","pt":"Cádis","fr":"Cadix","en":"Cadiz","ru":"Кадис","es":"Cádiz"}},"geometry":{"type":"Point","coordinates":[-6.29024,36.52986]},"id":"C20233687,NAVTEQ"},{"type":"Feature","properties":{"name":"Móstoles","parent":"20226801,NAVTEQ","officialNames":{"es":"Móstoles"}},"geometry":{"type":"Point","coordinates":[-3.86503,40.32305]},"id":"C20242863,NAVTEQ"},{"type":"Feature","properties":{"name":"Gijón","parent":"20226809,NAVTEQ","officialNames":{"es":"Gijón"}},"geometry":{"type":"Point","coordinates":[-5.6638,43.54203]},"id":"C20326317,NAVTEQ"},{"type":"Feature","properties":{"name":"Ciudad Real","parent":"20221905,NAVTEQ","officialNames":{"pt":"Cidade Real","ru":"Сьюдад-Реаль","el":"Σιουδαδ Ρεαλ","es":"Ciudad Real"}},"geometry":{"type":"Point","coordinates":[-3.93017,38.98441]},"id":"C20296607,NAVTEQ"},{"type":"Feature","properties":{"name":"Leganés","parent":"20226801,NAVTEQ","officialNames":{"es":"Leganés"}},"geometry":{"type":"Point","coordinates":[-3.76516,40.32805]},"id":"C20242787,NAVTEQ"},{"type":"Feature","properties":{"name":"Toledo","parent":"20221908,NAVTEQ","officialNames":{"fr":"Tolède","ru":"Толедо","el":"Τολεδο","es":"Toledo"}},"geometry":{"type":"Point","coordinates":[-4.02524,39.86184]},"id":"C20297621,NAVTEQ"},{"type":"Feature","properties":{"name":"Alcorcón","parent":"20226801,NAVTEQ","officialNames":{"es":"Alcorcón"}},"geometry":{"type":"Point","coordinates":[-3.82424,40.35141]},"id":"C20242411,NAVTEQ"},{"type":"Feature","properties":{"name":"Santiago de Compostela","parent":"20226792,NAVTEQ","officialNames":{"fr":"Saint-Jacques-de-Compostelle","gl":"Santiago de Compostela","it":"Santiago De Compostela","ru":"Сантьяго Де Компостелла","el":"Σαντιαγο Ντε Κομποστελα"}},"geometry":{"type":"Point","coordinates":[-8.54437,42.87685]},"id":"C20322186,NAVTEQ"},{"type":"Feature","properties":{"name":"Mérida","parent":"20226789,NAVTEQ","officialNames":{"pl":"Merida","it":"Merida","ru":"Мерида","el":"Μεριδα","es":"Mérida"}},"geometry":{"type":"Point","coordinates":[-6.34652,38.91604]},"id":"C20274158,NAVTEQ"},{"type":"Feature","properties":{"name":"San Cristóbal de la Laguna","parent":"20221900,NAVTEQ","officialNames":{"es":"San Cristóbal de la Laguna"}},"geometry":{"type":"Point","coordinates":[-16.31468,28.48525]},"id":"C20273123,NAVTEQ"},{"type":"Feature","properties":{"name":"Pamplona","parent":"20226803,NAVTEQ","officialNames":{"fr":"Pampelune","eu":"Iruña","ru":"Памплона","el":"Παμπλονα","es":"Pamplona"}},"geometry":{"type":"Point","coordinates":[-1.64375,42.81275]},"id":"C20284385,NAVTEQ"},{"type":"Feature","properties":{"name":"Cartagena","parent":"20226811,NAVTEQ","officialNames":{"fr":"Carthagène","es":"Cartagena"}},"geometry":{"type":"Point","coordinates":[-0.98801,37.60675]},"id":"C20287929,NAVTEQ"},{"type":"Feature","properties":{"name":"Badajoz","parent":"20226789,NAVTEQ","officialNames":{"el":"Μπαδαχοθ","es":"Badajoz","ru":"Бадахос"}},"geometry":{"type":"Point","coordinates":[-6.97262,38.87483]},"id":"C20273842,NAVTEQ"},{"type":"Feature","properties":{"name":"Málaga","parent":"20221892,NAVTEQ","officialNames":{"ru":"Малага","it":"Malaga","el":"Μαλαγα","es":"Málaga"}},"geometry":{"type":"Point","coordinates":[-4.42016,36.71832]},"id":"C20236085,NAVTEQ"},{"type":"Feature","properties":{"name":"Zaragoza","parent":"20221897,NAVTEQ","officialNames":{"de":"Saragossa","it":"Saragozza","ca":"Saragossa","el":"Ζαραγκοζα","pt":"Saragoça","pl":"Saragossa","fr":"Saragosse","ru":"Сарагоса","es":"Zaragoza"}},"geometry":{"type":"Point","coordinates":[-0.88132,41.65173]},"id":"C20279071,NAVTEQ"},{"type":"Feature","properties":{"name":"Fuenlabrada","parent":"20226801,NAVTEQ","officialNames":{"es":"Fuenlabrada"}},"geometry":{"type":"Point","coordinates":[-3.79289,40.28259]},"id":"C20242692,NAVTEQ"},{"type":"Feature","properties":{"name":"Jaén","parent":"20221891,NAVTEQ","officialNames":{"el":"Χαεν","es":"Jaén","ru":"Хаэн"}},"geometry":{"type":"Point","coordinates":[-3.79086,37.7651]},"id":"C20235572,NAVTEQ"},{"type":"Feature","properties":{"name":"Alcalá de Henares","parent":"20226801,NAVTEQ","officialNames":{"es":"Alcalá de Henares"}},"geometry":{"type":"Point","coordinates":[-3.37317,40.48064]},"id":"C20242399,NAVTEQ"},{"type":"Feature","properties":{"name":"Elx","parent":"20226785,NAVTEQ","officialNames":{"es":"Elche","ca":"Elx"}},"geometry":{"type":"Point","coordinates":[-0.69952,38.26348]},"id":"C20249195,NAVTEQ"},{"type":"Feature","properties":{"name":"Sevilla","parent":"20221893,NAVTEQ","officialNames":{"it":"Seviglia","el":"Σεβιλλη","pl":"Sewilla","pt":"Sevilha","fr":"Séville","en":"Seville","ru":"Севилья","es":"Sevilla"}},"geometry":{"type":"Point","coordinates":[-6.00181,37.38769]},"id":"C20236543,NAVTEQ"},{"type":"Feature","properties":{"name":"Zamora","parent":"20221918,NAVTEQ","officialNames":{"el":"Ζαμορα","es":"Zamora","ru":"Самора"}},"geometry":{"type":"Point","coordinates":[-5.74573,41.50333]},"id":"C20314771,NAVTEQ"},{"type":"Feature","properties":{"name":"Girona","parent":"20223544,NAVTEQ","officialNames":{"fr":"Gérone","ru":"Жирона","ca":"Girona","el":"Γιρονα","es":"Gerona"}},"geometry":{"type":"Point","coordinates":[2.81874,41.98086]},"id":"C20223945,NAVTEQ"},{"type":"Feature","properties":{"name":"Castellón de la Plana","parent":"20226786,NAVTEQ","officialNames":{"ca":"Castelló de la Plana","ru":"Кастельон-Де-Ла-Плана","el":"Καστελον Ντε Λα Πλανα","es":"Castellón de la Plana"}},"geometry":{"type":"Point","coordinates":[-0.04568,39.98514]},"id":"C20249534,NAVTEQ"},{"type":"Feature","properties":{"name":"Almería","parent":"20221886,NAVTEQ","officialNames":{"pt":"Almeria","ru":"Альмерия","el":"Αλμερια","es":"Almería"}},"geometry":{"type":"Point","coordinates":[-2.46379,36.84186]},"id":"C20232760,NAVTEQ"},{"type":"Feature","properties":{"name":"Cáceres","parent":"20226790,NAVTEQ","officialNames":{"el":"Καθερες","es":"Cáceres","ru":"Касерес"}},"geometry":{"type":"Point","coordinates":[-6.372,39.4745]},"id":"C20274596,NAVTEQ"},{"type":"Feature","properties":{"name":"Jerez de la Frontera","parent":"20221887,NAVTEQ","officialNames":{"es":"Jerez de la Frontera"}},"geometry":{"type":"Point","coordinates":[-6.13487,36.69094]},"id":"C20233728,NAVTEQ"},{"type":"Feature","properties":{"name":"Vigo","parent":"20226795,NAVTEQ","officialNames":{"el":"Βιγο","gl":"Vigo","ru":"Виго"}},"geometry":{"type":"Point","coordinates":[-8.73331,42.22131]},"id":"C20322393,NAVTEQ"},{"type":"Feature","properties":{"name":"Teruel","parent":"20221896,NAVTEQ","officialNames":{"ca":"Terol","ru":"Теруэль","el":"Τερουελ","es":"Teruel"}},"geometry":{"type":"Point","coordinates":[-1.10455,40.34204]},"id":"C20278396,NAVTEQ"},{"type":"Feature","properties":{"name":"Lugo","parent":"20226793,NAVTEQ","officialNames":{"el":"Λουγο","gl":"Lugo","ru":"Луго"}},"geometry":{"type":"Point","coordinates":[-7.56938,43.00951]},"id":"C20322197,NAVTEQ"},{"type":"Feature","properties":{"name":"Alacant","parent":"20226785,NAVTEQ","officialNames":{"ru":"Аликанте","ca":"Alacant","el":"Αλικαντε","es":"Alicante","no":"Alacant"}},"geometry":{"type":"Point","coordinates":[-0.48047,38.34408]},"id":"C20249043,NAVTEQ"},{"type":"Feature","properties":{"name":"Vitoria","parent":"20226805,NAVTEQ","officialNames":{"pt":"Vitória","eu":"Gasteiz","ru":"Витория","el":"Βιτορια","es":"Vitoria"}},"geometry":{"type":"Point","coordinates":[-2.68261,42.84358]},"id":"C20285633,NAVTEQ"},{"type":"Feature","properties":{"name":"Segovia","parent":"20221915,NAVTEQ","officialNames":{"pt":"Segóvia","fr":"Ségovie","ru":"Сеговия","el":"Σεγκοβια","es":"Segovia"}},"geometry":{"type":"Point","coordinates":[-4.11649,40.94846]},"id":"C20311348,NAVTEQ"},{"type":"Feature","properties":{"name":"Santander","parent":"20221902,NAVTEQ","officialNames":{"el":"Σανταντερ","es":"Santander","ru":"Сантандер"}},"geometry":{"type":"Point","coordinates":[-3.81001,43.4615]},"id":"C20282168,NAVTEQ"},{"type":"Feature","properties":{"name":"Mataró","parent":"20215742,NAVTEQ","officialNames":{"ca":"Mataró"}},"geometry":{"type":"Point","coordinates":[2.4439,41.54151]},"id":"C20222604,NAVTEQ"},{"type":"Feature","properties":{"name":"Madrid","parent":"20226801,NAVTEQ","officialNames":{"pl":"Madryt","ru":"Мадрид","el":"Μαδριτη","es":"Madrid"}},"geometry":{"type":"Point","coordinates":[-3.70577,40.4203]},"id":"C20242803,NAVTEQ"},{"type":"Feature","properties":{"name":"Getafe","parent":"20226801,NAVTEQ","officialNames":{"es":"Getafe"}},"geometry":{"type":"Point","coordinates":[-3.73109,40.30488]},"id":"C20242747,NAVTEQ"},{"type":"Feature","properties":{"name":"Burgos","parent":"20221911,NAVTEQ","officialNames":{"el":"Μπουργκος","es":"Burgos","ru":"Бургос"}},"geometry":{"type":"Point","coordinates":[-3.69981,42.34108]},"id":"C20302222,NAVTEQ"},{"type":"Feature","properties":{"name":"Albacete","parent":"20221904,NAVTEQ","officialNames":{"el":"Αλμπασετε","es":"Albacete","ru":"Альбасте"}},"geometry":{"type":"Point","coordinates":[-1.85406,38.99506]},"id":"C20293625,NAVTEQ"},{"type":"Feature","properties":{"name":"Logroño","parent":"20226799,NAVTEQ","officialNames":{"da":"Logrono","it":"Logrono","el":"Λογκρονο","pl":"Logrono","pt":"Logronho","ru":"Логроньо","es":"Logroño"}},"geometry":{"type":"Point","coordinates":[-2.44617,42.4653]},"id":"C20251998,NAVTEQ"},{"type":"Feature","properties":{"name":"Sabadell","parent":"20215742,NAVTEQ","officialNames":{"ca":"Sabadell"}},"geometry":{"type":"Point","coordinates":[2.1076,41.54876]},"id":"C20215990,NAVTEQ"},{"type":"Feature","properties":{"name":"Ávila","parent":"20221910,NAVTEQ","officialNames":{"pl":"Awila","ru":"Авила","el":"Αβιλα","es":"Ávila"}},"geometry":{"type":"Point","coordinates":[-4.69215,40.65785]},"id":"C20300857,NAVTEQ"},{"type":"Feature","properties":{"name":"Donostia","parent":"20226806,NAVTEQ","officialNames":{"eu":"Donostia","it":"San Sebastiano","el":"Σαν Σεμπαστιαν","pt":"São Sebastião","fr":"Saint-Sébastien","sv":"San Sebastian","ru":"Сан-Себастьян","es":"San Sebastián"}},"geometry":{"type":"Point","coordinates":[-1.97827,43.31732]},"id":"C20327163,NAVTEQ"}]}