{"type":"FeatureCollection","features":[{"type":"Feature","properties":{"name":"Ιωαννινα","parent":"20653388,NAVTEQ","officialNames":{"hr":"Ioannina","sl":"Ioannina","sk":"Ioannina","da":"Ioannina","it":"Giannina","tr":"İoannina","no":"Ioannina","hu":"Joannina","cs":"Ioánnina","de":"Ioannina","el":"Ιωαννινα","fi":"Ioannina","pl":"Janina","pt":"Ioánnina","sv":"Ioannina","fr":"Ioannina","en":"Ioannina","ru":"Янина","es":"Ioannina","nl":"Ioannina"}},"geometry":{"type":"Point","coordinates":[20.85638,39.66858]},"id":"C20679645,NAVTEQ"},{"type":"Feature","properties":{"name":"Αθηνα","parent":"20493454,NAVTEQ","officialNames":{"hr":"Atena","sk":"Atény","da":"Athen","it":"Atene","tr":"Atina","no":"Aten","hu":"Athén","cs":"Atény","de":"Athen","el":"Αθηνα","fi":"Ateena","pl":"Ateny","pt":"Atenas","sv":"Aten","fr":"Athènes","en":"Athens","ru":"Афины","es":"Atenas","nl":"Athene"}},"geometry":{"type":"Point","coordinates":[23.73718,37.97605]},"id":"C20493492,NAVTEQ"},{"type":"Feature","properties":{"name":"Χιος","parent":"20653402,NAVTEQ","officialNames":{"el":"Χιος"}},"geometry":{"type":"Point","coordinates":[26.1385,38.36799]},"id":"C23008100,NAVTEQ"},{"type":"Feature","properties":{"name":"Αμφισσα","parent":"20653399,NAVTEQ","officialNames":{"el":"Αμφισσα"}},"geometry":{"type":"Point","coordinates":[22.38056,38.52839]},"id":"C22994915,NAVTEQ"},{"type":"Feature","properties":{"name":"Αρτα","parent":"20653386,NAVTEQ","officialNames":{"el":"Αρτα"}},"geometry":{"type":"Point","coordinates":[20.97984,39.15874]},"id":"C23009049,NAVTEQ"},{"type":"Feature","properties":{"name":"Δραμα","parent":"20653328,NAVTEQ","officialNames":{"el":"Δραμα"}},"geometry":{"type":"Point","coordinates":[24.14737,41.15007]},"id":"C20678548,NAVTEQ"},{"type":"Feature","properties":{"name":"Βολος","parent":"20653343,NAVTEQ","officialNames":{"el":"Βολος"}},"geometry":{"type":"Point","coordinates":[22.95775,39.37413]},"id":"C20669390,NAVTEQ"},{"type":"Feature","properties":{"name":"Ρεθυμνο","parent":"20653407,NAVTEQ","officialNames":{"el":"Ρεθυμνο"}},"geometry":{"type":"Point","coordinates":[24.47115,35.3644]},"id":"C22996915,NAVTEQ"},{"type":"Feature","properties":{"name":"Λαμια","parent":"20653398,NAVTEQ","officialNames":{"hr":"Lamia","sl":"Lamia","sk":"Lamia","da":"Lamia","it":"Lamia","tr":"Lamia","no":"Lamia","hu":"Lamia","cs":"Lamia","de":"Lamia","el":"Λαμια","fi":"Lamia","pl":"Lamia","pt":"Lamia","sv":"Lamia","fr":"Lamia","en":"Lamia","ru":"Ламия","es":"Lamia","nl":"Lamia"}},"geometry":{"type":"Point","coordinates":[22.43582,38.89995]},"id":"C20669063,NAVTEQ"},{"type":"Feature","properties":{"name":"Γρεβενα","parent":"20653337,NAVTEQ","officialNames":{"el":"Γρεβενα"}},"geometry":{"type":"Point","coordinates":[21.42624,40.08347]},"id":"C22994711,NAVTEQ"},{"type":"Feature","properties":{"name":"Καστορια","parent":"20653338,NAVTEQ","officialNames":{"el":"Καστορια"}},"geometry":{"type":"Point","coordinates":[21.26116,40.52223]},"id":"C22995854,NAVTEQ"},{"type":"Feature","properties":{"name":"Λευκαδα","parent":"20653393,NAVTEQ","officialNames":{"el":"Λευκαδα"}},"geometry":{"type":"Point","coordinates":[20.70796,38.83179]},"id":"C23008545,NAVTEQ"},{"type":"Feature","properties":{"name":"Κοζανη","parent":"20653339,NAVTEQ","officialNames":{"hr":"Kozani","sl":"Kozani","sk":"Kozani","da":"Kozani","it":"Kozani","tr":"Kozani","no":"Kozani","hu":"Kozani","cs":"Kozani","de":"Kozani","el":"Κοζανη","fi":"Kozani","pl":"Kozani","pt":"Kozani","sv":"Kozani","fr":"Kozani","en":"Kozani","ru":"Козани","es":"Kozani","nl":"Kozani"}},"geometry":{"type":"Point","coordinates":[21.78856,40.30612]},"id":"C20679651,NAVTEQ"},{"type":"Feature","properties":{"name":"Φλωρινα","parent":"20653340,NAVTEQ","officialNames":{"el":"Φλωρινα"}},"geometry":{"type":"Point","coordinates":[21.41341,40.78322]},"id":"C22994412,NAVTEQ"},{"type":"Feature","properties":{"name":"Κερκυρα","parent":"20653391,NAVTEQ","officialNames":{"el":"Κερκυρα"}},"geometry":{"type":"Point","coordinates":[19.90743,39.61847]},"id":"C23008698,NAVTEQ"},{"type":"Feature","properties":{"name":"Βαθυ","parent":"20653401,NAVTEQ","officialNames":{"el":"Βαθυ"}},"geometry":{"type":"Point","coordinates":[26.98234,37.74906]},"id":"C23346237,NAVTEQ"},{"type":"Feature","properties":{"name":"Αγιος Νικολαος","parent":"20653406,NAVTEQ","officialNames":{"el":"Αγιος Νικολαος"}},"geometry":{"type":"Point","coordinates":[25.70569,35.18508]},"id":"C22996258,NAVTEQ"},{"type":"Feature","properties":{"name":"Τρικκαια","parent":"20653344,NAVTEQ","officialNames":{"el":"Τρικκαια"}},"geometry":{"type":"Point","coordinates":[21.77063,39.55517]},"id":"C20653384,NAVTEQ"},{"type":"Feature","properties":{"name":"Βεροια","parent":"20653330,NAVTEQ","officialNames":{"el":"Βεροια"}},"geometry":{"type":"Point","coordinates":[22.20415,40.5253]},"id":"C22994969,NAVTEQ"},{"type":"Feature","properties":{"name":"Ιερα Πολις Μεσολογγιου","parent":"20653394,NAVTEQ","officialNames":{"el":"Ιερα Πολις Μεσολογγιου"}},"geometry":{"type":"Point","coordinates":[21.43993,38.38489]},"id":"C20667238,NAVTEQ"},{"type":"Feature","properties":{"name":"Πατρα","parent":"20651092,NAVTEQ","officialNames":{"hr":"Patra","sl":"Patras","sk":"Patra","da":"Patras","it":"Patrasso","tr":"Patras","no":"Patras","hu":"Patrasz","cs":"Patras","de":"Patras","el":"Πατρα","fi":"Patras","pl":"Patras","pt":"Pátras","sv":"Patras","fr":"Patras","en":"Patra","ru":"Патры","es":"Patra","nl":"Patra"}},"geometry":{"type":"Point","coordinates":[21.73256,38.24425]},"id":"C20651109,NAVTEQ"},{"type":"Feature","properties":{"name":"Ροδος","parent":"20653403,NAVTEQ","officialNames":{"el":"Ροδος"}},"geometry":{"type":"Point","coordinates":[28.22591,36.44795]},"id":"C23008499,NAVTEQ"},{"type":"Feature","properties":{"name":"Ξανθη","parent":"20653326,NAVTEQ","officialNames":{"el":"Ξανθη"}},"geometry":{"type":"Point","coordinates":[24.89342,41.13254]},"id":"C23008655,NAVTEQ"},{"type":"Feature","properties":{"name":"Τριπολη","parent":"20563691,NAVTEQ","officialNames":{"hr":"Tripoli","sl":"Tripoli","sk":"Tripoli","da":"Tripoli","it":"Tripoli","tr":"Tripoli","no":"Tripoli","hu":"Tripolisz","cs":"Tripolis","de":"Tripolis","el":"Τριπολη","fi":"Tripoli","pl":"Tripolis","pt":"Trípoli","sv":"Tripoli","fr":"Tripoli","en":"Tripoli","ru":"Триполи","es":"Trípoli","nl":"Tripoli"}},"geometry":{"type":"Point","coordinates":[22.37285,37.50996]},"id":"C20679906,NAVTEQ"},{"type":"Feature","properties":{"name":"Εδεσσα","parent":"20653333,NAVTEQ","officialNames":{"el":"Εδεσσα"}},"geometry":{"type":"Point","coordinates":[22.04982,40.80064]},"id":"C20667965,NAVTEQ"},{"type":"Feature","properties":{"name":"Πειραιας","parent":"20493454,NAVTEQ","officialNames":{"el":"Πειραιας"}},"geometry":{"type":"Point","coordinates":[23.64737,37.94273]},"id":"C20493640,NAVTEQ"},{"type":"Feature","properties":{"name":"Σπαρτη","parent":"20651122,NAVTEQ","officialNames":{"el":"Σπαρτη"}},"geometry":{"type":"Point","coordinates":[22.42668,37.07459]},"id":"C22933346,NAVTEQ"},{"type":"Feature","properties":{"name":"Κατερινη","parent":"20653334,NAVTEQ","officialNames":{"el":"Κατερινη"}},"geometry":{"type":"Point","coordinates":[22.50916,40.27141]},"id":"C22996442,NAVTEQ"},{"type":"Feature","properties":{"name":"Ηρακλειο","parent":"20653405,NAVTEQ","officialNames":{"sk":"Irakleio","da":"Heraklion","it":"Candia","tr":"Kandıye","no":"Iraklio","hu":"Iraklion","cs":"Iraklion","de":"Iraklio","el":"Ηρακλειο","fi":"Heraklion","pl":"Iraklion","pt":"Iráclio","sv":"Heraklion","fr":"Héraklion","en":"Heraklion","ru":"Ираклион","es":"Heraklion","nl":"Iraklion"}},"geometry":{"type":"Point","coordinates":[25.14454,35.33876]},"id":"C22996773,NAVTEQ"},{"type":"Feature","properties":{"name":"Καλλιθεα","parent":"20493454,NAVTEQ","officialNames":{"el":"Καλλιθεα"}},"geometry":{"type":"Point","coordinates":[23.70056,37.95723]},"id":"C20493544,NAVTEQ"},{"type":"Feature","properties":{"name":"Καλαματα","parent":"20651119,NAVTEQ","officialNames":{"el":"Καλαματα"}},"geometry":{"type":"Point","coordinates":[22.11145,37.04294]},"id":"C20668841,NAVTEQ"},{"type":"Feature","properties":{"name":"Καρδιτσα","parent":"20653341,NAVTEQ","officialNames":{"el":"Καρδιτσα"}},"geometry":{"type":"Point","coordinates":[21.91967,39.36208]},"id":"C22996390,NAVTEQ"},{"type":"Feature","properties":{"name":"Ζακυνθος","parent":"20653390,NAVTEQ","officialNames":{"el":"Ζακυνθος"}},"geometry":{"type":"Point","coordinates":[20.89836,37.78397]},"id":"C23008765,NAVTEQ"},{"type":"Feature","properties":{"name":"Χαλκιδα","parent":"20653396,NAVTEQ","officialNames":{"el":"Χαλκιδα"}},"geometry":{"type":"Point","coordinates":[23.60215,38.46047]},"id":"C22994640,NAVTEQ"},{"type":"Feature","properties":{"name":"Πολυγυρος","parent":"20653336,NAVTEQ","officialNames":{"el":"Πολυγυρος"}},"geometry":{"type":"Point","coordinates":[23.44578,40.37614]},"id":"C22996524,NAVTEQ"},{"type":"Feature","properties":{"name":"Ερμουπολη","parent":"20653404,NAVTEQ","officialNames":{"el":"Ερμουπολη"}},"geometry":{"type":"Point","coordinates":[24.93589,37.43721]},"id":"C23007966,NAVTEQ"},{"type":"Feature","properties":{"name":"Χανια","parent":"20653408,NAVTEQ","officialNames":{"el":"Χανια"}},"geometry":{"type":"Point","coordinates":[24.01224,35.51196]},"id":"C23060181,NAVTEQ"},{"type":"Feature","properties":{"name":"Αργοστολι","parent":"20653392,NAVTEQ","officialNames":{"el":"Αργοστολι"}},"geometry":{"type":"Point","coordinates":[20.48735,38.17845]},"id":"C23008269,NAVTEQ"},{"type":"Feature","properties":{"name":"Καρπενησι","parent":"20653397,NAVTEQ","officialNames":{"el":"Καρπενησι"}},"geometry":{"type":"Point","coordinates":[21.7947,38.9154]},"id":"C22994980,NAVTEQ"},{"type":"Feature","properties":{"name":"Πυργος","parent":"20651116,NAVTEQ","officialNames":{"el":"Πυργος"}},"geometry":{"type":"Point","coordinates":[21.43904,37.67245]},"id":"C20667335,NAVTEQ"},{"type":"Feature","properties":{"name":"Πρεβεζα","parent":"20653389,NAVTEQ","officialNames":{"el":"Πρεβεζα"}},"geometry":{"type":"Point","coordinates":[20.75141,38.95799]},"id":"C23217146,NAVTEQ"},{"type":"Feature","properties":{"name":"Σερρες","parent":"20653335,NAVTEQ","officialNames":{"el":"Σερρες"}},"geometry":{"type":"Point","coordinates":[23.54597,41.08948]},"id":"C20679656,NAVTEQ"},{"type":"Feature","properties":{"name":"Περιστερι","parent":"20493454,NAVTEQ","officialNames":{"el":"Περιστερι"}},"geometry":{"type":"Point","coordinates":[23.6895,38.0133]},"id":"C20493634,NAVTEQ"},{"type":"Feature","properties":{"name":"Λειβαδια","parent":"20653395,NAVTEQ","officialNames":{"el":"Λειβαδια"}},"geometry":{"type":"Point","coordinates":[22.88005,38.43855]},"id":"C22995467,NAVTEQ"},{"type":"Feature","properties":{"name":"Κομοτηνη","parent":"20653327,NAVTEQ","officialNames":{"hr":"Komotini","sl":"Komotini","sk":"Komotini","da":"Komotini","it":"Komotini","tr":"Komotini","no":"Komotini","hu":"Komotini","cs":"Komotini","de":"Komotini","el":"Κομοτηνη","fi":"Komotini","pl":"Komotini","pt":"Komotini","sv":"Komotini","fr":"Komotini","en":"Komotini","ru":"Комотин","es":"Komotini","nl":"Komotini"}},"geometry":{"type":"Point","coordinates":[25.40377,41.11866]},"id":"C20667122,NAVTEQ"},{"type":"Feature","properties":{"name":"Κορινθος","parent":"20563895,NAVTEQ","officialNames":{"el":"Κορινθος","fr":"Corinthe"}},"geometry":{"type":"Point","coordinates":[22.93451,37.9402]},"id":"C20563935,NAVTEQ"},{"type":"Feature","properties":{"name":"Ηγουμενιτσα","parent":"20653387,NAVTEQ","officialNames":{"el":"Ηγουμενιτσα"}},"geometry":{"type":"Point","coordinates":[20.25838,39.51265]},"id":"C23008308,NAVTEQ"},{"type":"Feature","properties":{"name":"Κιλκις","parent":"20653332,NAVTEQ","officialNames":{"el":"Κιλκις"}},"geometry":{"type":"Point","coordinates":[22.87545,40.99419]},"id":"C22994632,NAVTEQ"},{"type":"Feature","properties":{"name":"Λαρισα","parent":"20653342,NAVTEQ","officialNames":{"hr":"Larisa","sl":"Larisa","sk":"Larisa","da":"Larissa","it":"Larissa","tr":"Larisa","no":"Larisa","hu":"Larissza","cs":"Larisa","de":"Larisa","el":"Λαρισα","fi":"Larissa","pl":"Larisa","pt":"Lárissa","sv":"Larissa","fr":"Larissa","en":"Larisa","ru":"Лариса","es":"Larisa","nl":"Larisa"}},"geometry":{"type":"Point","coordinates":[22.42127,39.63848]},"id":"C20665880,NAVTEQ"},{"type":"Feature","properties":{"name":"Θεσσαλονικη","parent":"20653331,NAVTEQ","officialNames":{"hr":"Solun","sl":"Solun","sk":"Solún","da":"Thessaloniki","it":"Salonicco","tr":"Thessaloniki","no":"Thessaloniki","hu":"Thesszaloniki","cs":"Soluň","de":"Thessaloniki","el":"Θεσσαλονικη","fi":"Thessaloniki","pl":"Saloniki","pt":"Tessalónica","sv":"Thessaloniki","fr":"Thessalonique","en":"Thessaloniki","ru":"Салоники","es":"Tesalónica","nl":"Thessaloniki"}},"geometry":{"type":"Point","coordinates":[22.93707,40.63955]},"id":"C20665881,NAVTEQ"},{"type":"Feature","properties":{"name":"Ναυπλιο","parent":"20563893,NAVTEQ","officialNames":{"el":"Ναυπλιο"}},"geometry":{"type":"Point","coordinates":[22.8069,37.56645]},"id":"C22933574,NAVTEQ"},{"type":"Feature","properties":{"name":"Μυτιληνη","parent":"20653400,NAVTEQ","officialNames":{"el":"Μυτιληνη"}},"geometry":{"type":"Point","coordinates":[26.55599,39.10585]},"id":"C23008540,NAVTEQ"},{"type":"Feature","properties":{"name":"Καβαλα","parent":"20653329,NAVTEQ","officialNames":{"el":"Καβαλα"}},"geometry":{"type":"Point","coordinates":[24.41424,40.93624]},"id":"C20678277,NAVTEQ"},{"type":"Feature","properties":{"name":"Αλεξανδρουπολη","parent":"20653325,NAVTEQ","officialNames":{"el":"Αλεξανδρουπολη"}},"geometry":{"type":"Point","coordinates":[25.86621,40.86594]},"id":"C20667035,NAVTEQ"}]}