{"type":"FeatureCollection","features":[{"type":"Feature","properties":{"name":"San Pedro Sula","parent":"23812871,NAVTEQ","officialNames":{"de":"San Pedro Sula","fr":"San Pedro Sula","en":"San Pedro Sula","it":"San Pedro Sula","es":"San Pedro Sula","nl":"San Pedro Sula"}},"geometry":{"type":"Point","coordinates":[-88.01529,15.50418]},"id":"C23813010,NAVTEQ"},{"type":"Feature","properties":{"name":"El Progreso","parent":"23813225,NAVTEQ","officialNames":{"de":"El Progreso","fr":"El Progreso","en":"El Progreso","it":"El Progreso","es":"El Progreso","nl":"El Progreso"}},"geometry":{"type":"Point","coordinates":[-87.78887,15.45099]},"id":"C23812960,NAVTEQ"},{"type":"Feature","properties":{"name":"La Ceiba","parent":"23813163,NAVTEQ","officialNames":{"de":"La Ceiba","fr":"La Ceiba","en":"La Ceiba","it":"La Ceiba","es":"La Ceiba","nl":"La Ceiba"}},"geometry":{"type":"Point","coordinates":[-86.73874,15.76962]},"id":"C23812917,NAVTEQ"},{"type":"Feature","properties":{"name":"Tegucigalpa","parent":"23812989,NAVTEQ","officialNames":{"de":"Tegucigalpa","fr":"Tegucigalpa","en":"Tegucigalpa","it":"Tegucigalpa","es":"Tegucigalpa","nl":"Tegucigalpa"}},"geometry":{"type":"Point","coordinates":[-87.2054,14.0819]},"id":"C23813455,NAVTEQ"},{"type":"Feature","properties":{"name":"Choloma","parent":"23812911,NAVTEQ","officialNames":{"de":"Choloma","fr":"Choloma","en":"Choloma","it":"Choloma","es":"Choloma","nl":"Choloma"}},"geometry":{"type":"Point","coordinates":[-87.95551,15.60564]},"id":"C23813007,NAVTEQ"}]}