{"type":"FeatureCollection","features":[{"type":"Feature","properties":{"name":"Miskolc","parent":"20615834,NAVTEQ","officialNames":{"de":"Mischkolz","sk":"Miškovec","el":"Μισκολκ","hu":"Miskolc","pl":"Miszkolc","ru":"Мишкольц","cs":"Miškovec"}},"geometry":{"type":"Point","coordinates":[20.79055,48.10562]},"id":"C20615840,NAVTEQ"},{"type":"Feature","properties":{"name":"Salgótarján","parent":"20618969,NAVTEQ","officialNames":{"hu":"Salgótarján"}},"geometry":{"type":"Point","coordinates":[19.80842,48.10513]},"id":"C20618973,NAVTEQ"},{"type":"Feature","properties":{"name":"Budapest","parent":"20616318,NAVTEQ","officialNames":{"sk":"Budapešť","el":"Βουδαπεστη","hu":"Budapest","pl":"Budapeszt","pt":"Budapeste","ru":"Будапешт","nl":"Boedapest","cs":"Budapešť"}},"geometry":{"type":"Point","coordinates":[19.06482,47.50622]},"id":"C20645840,NAVTEQ"},{"type":"Feature","properties":{"name":"Komárom","parent":"20618525,NAVTEQ","officialNames":{"hu":"Komárom"}},"geometry":{"type":"Point","coordinates":[18.11929,47.7445]},"id":"C20618527,NAVTEQ"},{"type":"Feature","properties":{"name":"Nyíregyháza","parent":"20620858,NAVTEQ","officialNames":{"da":"Nyiregyhaza","it":"Nyiregyhaza","el":"Νυιρεγκυχαζα","no":"Nyiregyhaza","hu":"Nyíregyháza","pl":"Nyiregyhaza","ru":"Ньиредьхаза"}},"geometry":{"type":"Point","coordinates":[21.71825,47.95921]},"id":"C20620871,NAVTEQ"},{"type":"Feature","properties":{"name":"Pécs","parent":"20614903,NAVTEQ","officialNames":{"de":"Fünfkirchen","sk":"Päťkostolie","da":"Pecs","it":"Pecs","el":"Πετς","no":"Pecs","hu":"Pécs","pl":"Pecz","ru":"Печ","es":"Pecs","cs":"Pětikostelí"}},"geometry":{"type":"Point","coordinates":[18.22857,46.07308]},"id":"C20614905,NAVTEQ"},{"type":"Feature","properties":{"name":"Kaposvár","parent":"20619959,NAVTEQ","officialNames":{"hu":"Kaposvár"}},"geometry":{"type":"Point","coordinates":[17.78527,46.35528]},"id":"C20619961,NAVTEQ"},{"type":"Feature","properties":{"name":"Székesfehérvár","parent":"20616851,NAVTEQ","officialNames":{"de":"Stuhlweissenburg","sk":"Stoličný Belehrad","da":"Szekesfehervar","it":"Albareale","el":"Σεκεσφεχερβαρ","no":"Szekesfehervar","hu":"Székesfehérvár","pl":"Szekesfehervar","ru":"Секешфехервар","cs":"Stoličný Bělehrad"}},"geometry":{"type":"Point","coordinates":[18.41039,47.1961]},"id":"C20616855,NAVTEQ"},{"type":"Feature","properties":{"name":"Szolnok","parent":"20618304,NAVTEQ","officialNames":{"hu":"Szolnok"}},"geometry":{"type":"Point","coordinates":[20.19453,47.1773]},"id":"C20618305,NAVTEQ"},{"type":"Feature","properties":{"name":"Szeged","parent":"20616516,NAVTEQ","officialNames":{"de":"Szegedin","sk":"Segedín","it":"Seghedino","el":"Σεγκεντ","hu":"Szeged","pl":"Segedyn","ru":"Сегед","cs":"Segedín"}},"geometry":{"type":"Point","coordinates":[20.14841,46.25428]},"id":"C20616519,NAVTEQ"},{"type":"Feature","properties":{"name":"Békéscsaba","parent":"20614001,NAVTEQ","officialNames":{"hu":"Békéscsaba"}},"geometry":{"type":"Point","coordinates":[21.09971,46.68208]},"id":"C20614002,NAVTEQ"},{"type":"Feature","properties":{"name":"Zalaegerszeg","parent":"20623715,NAVTEQ","officialNames":{"hu":"Zalaegerszeg"}},"geometry":{"type":"Point","coordinates":[16.84665,46.84533]},"id":"C20623722,NAVTEQ"},{"type":"Feature","properties":{"name":"Debrecen","parent":"20617532,NAVTEQ","officialNames":{"de":"Debreczin","sk":"Debrecín","el":"Ντεμπρετσεν","hu":"Debrecen","pl":"Debreczyn","ru":"Дебрецен","cs":"Debrecín"}},"geometry":{"type":"Point","coordinates":[21.61932,47.53441]},"id":"C20617537,NAVTEQ"},{"type":"Feature","properties":{"name":"Tarpa","parent":"22698397,NAVTEQ","officialNames":{"hu":"Tarpa"}},"geometry":{"type":"Point","coordinates":[22.52855,48.10396]},"id":"C22698927,NAVTEQ"},{"type":"Feature","properties":{"name":"Kecskemét","parent":"20613779,NAVTEQ","officialNames":{"da":"Kecskemet","it":"Kecskemet","el":"Κετσκεμετ","no":"Kecskemet","hu":"Kecskemét","pl":"Kecskemet","ru":"Кечкемет","es":"Kecskemet"}},"geometry":{"type":"Point","coordinates":[19.68663,46.90464]},"id":"C20613783,NAVTEQ"},{"type":"Feature","properties":{"name":"Szombathely","parent":"20622176,NAVTEQ","officialNames":{"hu":"Szombathely"}},"geometry":{"type":"Point","coordinates":[16.61573,47.22805]},"id":"C20622178,NAVTEQ"},{"type":"Feature","properties":{"name":"Győr","parent":"20617087,NAVTEQ","officialNames":{"de":"Raab","sk":"Ráb","da":"Gyor","it":"Gyor","el":"Γκυορ","no":"Gyor","hu":"Győr","pl":"Gyor","sv":"Gyor","ru":"Дьёр","es":"Gyor","cs":"Ráb"}},"geometry":{"type":"Point","coordinates":[17.63567,47.68382]},"id":"C20617089,NAVTEQ"},{"type":"Feature","properties":{"name":"Eger","parent":"20617848,NAVTEQ","officialNames":{"hu":"Eger"}},"geometry":{"type":"Point","coordinates":[20.37345,47.899]},"id":"C20617849,NAVTEQ"},{"type":"Feature","properties":{"name":"Szekszárd","parent":"20621540,NAVTEQ","officialNames":{"hu":"Szekszárd"}},"geometry":{"type":"Point","coordinates":[18.70212,46.34854]},"id":"C20621541,NAVTEQ"}]}