{"type":"FeatureCollection","features":[{"type":"Feature","properties":{"name":"Lembang","parent":"23440037,NAVTEQ","officialNames":{"id":"Lembang"}},"geometry":{"type":"Point","coordinates":[107.60599,-6.86585]},"id":"C23442566,NAVTEQ"},{"type":"Feature","properties":{"name":"Surabaya Kota","parent":"23448716,NAVTEQ","officialNames":{"id":"Surabaya Kota"}},"geometry":{"type":"Point","coordinates":[112.72996,-7.27537]},"id":"C23465224,NAVTEQ"},{"type":"Feature","properties":{"name":"Medan","parent":"23464453,NAVTEQ","officialNames":{"id":"Medan"}},"geometry":{"type":"Point","coordinates":[98.67604,3.75227]},"id":"C23458979,NAVTEQ"},{"type":"Feature","properties":{"name":"Semarang","parent":"23441828,NAVTEQ","officialNames":{"id":"Semarang"}},"geometry":{"type":"Point","coordinates":[109.70382,-7.3954]},"id":"C23456444,NAVTEQ"},{"type":"Feature","properties":{"name":"Jakarta","parent":"23460320,NAVTEQ","officialNames":{"id":"Jakarta","de":"Jakarta","fr":"Jakarta","en":"Jakarta","it":"Giakarta","es":"Yakarta"}},"geometry":{"type":"Point","coordinates":[106.82782,-6.1715]},"id":"C23456328,NAVTEQ"},{"type":"Feature","properties":{"name":"Denpasar","parent":"23448659,NAVTEQ","officialNames":{"id":"Denpasar"}},"geometry":{"type":"Point","coordinates":[115.22155,-8.65666]},"id":"C23462395,NAVTEQ"},{"type":"Feature","properties":{"name":"Tangerang","parent":"23449862,NAVTEQ","officialNames":{"id":"Tangerang"}},"geometry":{"type":"Point","coordinates":[106.63344,-6.18141]},"id":"C23449380,NAVTEQ"},{"type":"Feature","properties":{"name":"Bandung Kota","parent":"23440037,NAVTEQ","officialNames":{"id":"Bandung Kota"}},"geometry":{"type":"Point","coordinates":[107.6052,-6.92223]},"id":"C23459930,NAVTEQ"}]}