{"type":"FeatureCollection","features":[{"type":"Feature","properties":{"name":"Karbala","parent":"23750298,NAVTEQ","officialNames":{"ar":"كربلاء","en":"Karbala"}},"geometry":{"type":"Point","coordinates":[44.03238,32.60225]},"id":"C23775021,NAVTEQ"},{"type":"Feature","properties":{"name":"Baghdad","parent":"23775629,NAVTEQ","officialNames":{"de":"Bagdad","it":"Baghdad","fr":"Bagdad","ar":"بغداد","en":"Baghdad","es":"Bagdad","nl":"Bagdad"}},"geometry":{"type":"Point","coordinates":[44.39301,33.34202]},"id":"C23782460,NAVTEQ"},{"type":"Feature","properties":{"name":"Ba\u0027Quba","parent":"23750296,NAVTEQ","officialNames":{"ar":"بعقوبة","en":"Ba\u0027Quba"}},"geometry":{"type":"Point","coordinates":[44.60305,33.75744]},"id":"C23782453,NAVTEQ"},{"type":"Feature","properties":{"name":"Al Hillah","parent":"23750311,NAVTEQ","officialNames":{"ar":"الحلة","en":"Al Hillah"}},"geometry":{"type":"Point","coordinates":[44.40876,32.45635]},"id":"C23781880,NAVTEQ"},{"type":"Feature","properties":{"name":"Mosul","parent":"23750214,NAVTEQ","officialNames":{"de":"Mosul","it":"Mossul","fr":"Mossoul","ar":"موصل","en":"Mosul","es":"Mosul","nl":"Mosul"}},"geometry":{"type":"Point","coordinates":[43.14298,36.34849]},"id":"C23782470,NAVTEQ"},{"type":"Feature","properties":{"name":"Al Amarah","parent":"23750206,NAVTEQ","officialNames":{"ar":"العمارة","en":"Al Amarah"}},"geometry":{"type":"Point","coordinates":[47.14245,31.83728]},"id":"C23775024,NAVTEQ"},{"type":"Feature","properties":{"name":"Kirkuk","parent":"23750303,NAVTEQ","officialNames":{"ar":"كركوك","en":"Kirkuk"}},"geometry":{"type":"Point","coordinates":[44.38952,35.46873]},"id":"C23775023,NAVTEQ"},{"type":"Feature","properties":{"name":"An Najaf","parent":"23750266,NAVTEQ","officialNames":{"ar":"النجف","en":"An Najaf"}},"geometry":{"type":"Point","coordinates":[44.35979,32.01162]},"id":"C23775005,NAVTEQ"},{"type":"Feature","properties":{"name":"An Nasiriyah","parent":"23750300,NAVTEQ","officialNames":{"ar":"الناصرية","en":"An Nasiriyah"}},"geometry":{"type":"Point","coordinates":[46.23974,31.03685]},"id":"C23775017,NAVTEQ"},{"type":"Feature","properties":{"name":"Irbil","parent":"23750264,NAVTEQ","officialNames":{"ar":"اربيل","en":"Irbil"}},"geometry":{"type":"Point","coordinates":[44.01224,36.19098]},"id":"C23775007,NAVTEQ"},{"type":"Feature","properties":{"name":"Ar Ramadi","parent":"23750329,NAVTEQ","officialNames":{"ar":"الرمادي","en":"Ar Ramadi"}},"geometry":{"type":"Point","coordinates":[43.26359,33.43246]},"id":"C23779959,NAVTEQ"},{"type":"Feature","properties":{"name":"As Sulaymaniyah","parent":"23750309,NAVTEQ","officialNames":{"ar":"السليمانية","en":"As Sulaymaniyah"}},"geometry":{"type":"Point","coordinates":[45.43427,35.55998]},"id":"C23775014,NAVTEQ"},{"type":"Feature","properties":{"name":"Ad Diwaniyah","parent":"23750286,NAVTEQ","officialNames":{"ar":"الديوانية","en":"Ad Diwaniyah"}},"geometry":{"type":"Point","coordinates":[44.88114,31.99705]},"id":"C23775003,NAVTEQ"},{"type":"Feature","properties":{"name":"Al Basrah","parent":"23750279,NAVTEQ","officialNames":{"ar":"البصرة","en":"Al Basrah"}},"geometry":{"type":"Point","coordinates":[47.80568,30.46289]},"id":"C23780532,NAVTEQ"},{"type":"Feature","properties":{"name":"Al Kut","parent":"23750197,NAVTEQ","officialNames":{"ar":"الكوت","en":"Al Kut"}},"geometry":{"type":"Point","coordinates":[45.83443,32.50591]},"id":"C23776133,NAVTEQ"}]}