{"type":"FeatureCollection","features":[{"type":"Feature","properties":{"name":"NODA-SHI","parent":"22928357,NAVTEQ","officialNames":{"en":"NODA-SHI"}},"geometry":{"type":"Point","coordinates":[139.87292,35.94411]},"id":"EM844426443,NAVTEQ"},{"type":"Feature","properties":{"name":"ATSUGI-SHI","parent":"22928357,NAVTEQ","officialNames":{"en":"ATSUGI-SHI"}},"geometry":{"type":"Point","coordinates":[139.37523,35.44683]},"id":"EM844398110,NAVTEQ"},{"type":"Feature","properties":{"name":"TAKARAZUKA-SHI","parent":"22928357,NAVTEQ","officialNames":{"en":"TAKARAZUKA-SHI"}},"geometry":{"type":"Point","coordinates":[135.38298,34.8112]},"id":"EM844388410,NAVTEQ"},{"type":"Feature","properties":{"name":"YAMAGUCHI-SHI","parent":"22928357,NAVTEQ","officialNames":{"en":"YAMAGUCHI-SHI"}},"geometry":{"type":"Point","coordinates":[131.47901,34.17326]},"id":"EM844401582,NAVTEQ"},{"type":"Feature","properties":{"name":"TAMA-KU","parent":"22928357,NAVTEQ","officialNames":{"en":"TAMA-KU"}},"geometry":{"type":"Point","coordinates":[139.52703,35.6374]},"id":"EM844405286,NAVTEQ"},{"type":"Feature","properties":{"name":"IBARAKI","parent":"22928357,NAVTEQ","officialNames":{"en":"IBARAKI"}},"geometry":{"type":"Point","coordinates":[135.72157,34.81612]},"id":"EM844414765,NAVTEQ"},{"type":"Feature","properties":{"name":"UBE-SHI","parent":"22928357,NAVTEQ","officialNames":{"en":"UBE-SHI"}},"geometry":{"type":"Point","coordinates":[131.23902,33.96634]},"id":"EM844425540,NAVTEQ"},{"type":"Feature","properties":{"name":"CHIBA-SHI","parent":"22928357,NAVTEQ","officialNames":{"en":"CHIBA-SHI"}},"geometry":{"type":"Point","coordinates":[140.13437,35.6074]},"id":"EM844427687,NAVTEQ"},{"type":"Feature","properties":{"name":"IWAKUNI-SHI","parent":"22928357,NAVTEQ","officialNames":{"en":"IWAKUNI-SHI"}},"geometry":{"type":"Point","coordinates":[132.21122,34.15076]},"id":"EM844396290,NAVTEQ"},{"type":"Feature","properties":{"name":"KAKOGAWA-SHI","parent":"22928357,NAVTEQ","officialNames":{"en":"KAKOGAWA-SHI"}},"geometry":{"type":"Point","coordinates":[134.87719,34.71053]},"id":"EM844443454,NAVTEQ"},{"type":"Feature","properties":{"name":"TAKATSU-KU","parent":"22928357,NAVTEQ","officialNames":{"en":"TAKATSU-KU"}},"geometry":{"type":"Point","coordinates":[139.59216,35.53672]},"id":"EM844425585,NAVTEQ"},{"type":"Feature","properties":{"name":"TAKADA-SHI","parent":"22928357,NAVTEQ","officialNames":{"en":"TAKADA-SHI"}},"geometry":{"type":"Point","coordinates":[138.24864,37.11249]},"id":"EM844439246,NAVTEQ"},{"type":"Feature","properties":{"name":"MIYAKONOJO","parent":"22928357,NAVTEQ","officialNames":{"en":"MIYAKONOJO"}},"geometry":{"type":"Point","coordinates":[131.06602,31.71242]},"id":"EM844401710,NAVTEQ"},{"type":"Feature","properties":{"name":"AJINO","parent":"22928357,NAVTEQ","officialNames":{"en":"AJINO"}},"geometry":{"type":"Point","coordinates":[133.82276,34.47851]},"id":"EM844439853,NAVTEQ"},{"type":"Feature","properties":{"name":"KOMAKI-SHI","parent":"22928357,NAVTEQ","officialNames":{"en":"KOMAKI-SHI"}},"geometry":{"type":"Point","coordinates":[136.93111,35.27307]},"id":"EM844446553,NAVTEQ"},{"type":"Feature","properties":{"name":"SUGINAMI-KU","parent":"22928357,NAVTEQ","officialNames":{"en":"SUGINAMI-KU"}},"geometry":{"type":"Point","coordinates":[139.65872,35.68877]},"id":"EM844418592,NAVTEQ"},{"type":"Feature","properties":{"name":"KIRYU-SHI","parent":"22928357,NAVTEQ","officialNames":{"en":"KIRYU-SHI"}},"geometry":{"type":"Point","coordinates":[139.34133,36.4148]},"id":"EM844424573,NAVTEQ"},{"type":"Feature","properties":{"name":"OSAKA","parent":"22928357,NAVTEQ","officialNames":{"en":"OSAKA"}},"geometry":{"type":"Point","coordinates":[137.24457,35.92367]},"id":"EM844436618,NAVTEQ"},{"type":"Feature","properties":{"name":"SAKURA-SHI","parent":"22928357,NAVTEQ","officialNames":{"en":"SAKURA-SHI"}},"geometry":{"type":"Point","coordinates":[140.26901,35.73546]},"id":"EM844390667,NAVTEQ"},{"type":"Feature","properties":{"name":"TAMASHIMA-SHI","parent":"22928357,NAVTEQ","officialNames":{"en":"TAMASHIMA-SHI"}},"geometry":{"type":"Point","coordinates":[133.667,34.53319]},"id":"EM844439044,NAVTEQ"},{"type":"Feature","properties":{"name":"MATSUDO-SHI","parent":"22928357,NAVTEQ","officialNames":{"en":"MATSUDO-SHI"}},"geometry":{"type":"Point","coordinates":[139.9212,35.8149]},"id":"EM844432930,NAVTEQ"},{"type":"Feature","properties":{"name":"KASHIHARA-SHI","parent":"22928357,NAVTEQ","officialNames":{"en":"KASHIHARA-SHI"}},"geometry":{"type":"Point","coordinates":[135.80043,34.49811]},"id":"EM844393296,NAVTEQ"},{"type":"Feature","properties":{"name":"SASEBO-SHI","parent":"22928357,NAVTEQ","officialNames":{"en":"SASEBO-SHI"}},"geometry":{"type":"Point","coordinates":[129.71588,33.17547]},"id":"EM844433374,NAVTEQ"},{"type":"Feature","properties":{"name":"FUKUI","parent":"22928357,NAVTEQ","officialNames":{"en":"FUKUI"}},"geometry":{"type":"Point","coordinates":[139.50724,36.28725]},"id":"EM844409715,NAVTEQ"},{"type":"Feature","properties":{"name":"OTARU-SHI","parent":"22928357,NAVTEQ","officialNames":{"en":"OTARU-SHI"}},"geometry":{"type":"Point","coordinates":[141.0034,43.19086]},"id":"EM844418454,NAVTEQ"},{"type":"Feature","properties":{"name":"HIRANO-KU","parent":"22928357,NAVTEQ","officialNames":{"en":"HIRANO-KU"}},"geometry":{"type":"Point","coordinates":[135.57856,34.58973]},"id":"EM844393094,NAVTEQ"},{"type":"Feature","properties":{"name":"YOKOSUKA-SHI","parent":"22928357,NAVTEQ","officialNames":{"en":"YOKOSUKA-SHI"}},"geometry":{"type":"Point","coordinates":[139.67728,35.26606]},"id":"EM844390377,NAVTEQ"},{"type":"Feature","properties":{"name":"AGEO-SHI","parent":"22928357,NAVTEQ","officialNames":{"en":"AGEO-SHI"}},"geometry":{"type":"Point","coordinates":[139.5708,36.00721]},"id":"EM844415493,NAVTEQ"},{"type":"Feature","properties":{"name":"MATSUE-SHI","parent":"22928357,NAVTEQ","officialNames":{"en":"MATSUE-SHI"}},"geometry":{"type":"Point","coordinates":[133.06667,35.46854]},"id":"EM844403852,NAVTEQ"},{"type":"Feature","properties":{"name":"NAKAHARA-KU","parent":"22928357,NAVTEQ","officialNames":{"en":"NAKAHARA-KU"}},"geometry":{"type":"Point","coordinates":[139.59216,35.53672]},"id":"EM844445188,NAVTEQ"},{"type":"Feature","properties":{"name":"KAWANISHI-SHI","parent":"22928357,NAVTEQ","officialNames":{"en":"KAWANISHI-SHI"}},"geometry":{"type":"Point","coordinates":[135.41772,34.81549]},"id":"EM844445414,NAVTEQ"},{"type":"Feature","properties":{"name":"KORIYAMA-SHI","parent":"22928357,NAVTEQ","officialNames":{"en":"KORIYAMA-SHI"}},"geometry":{"type":"Point","coordinates":[140.39786,37.40818]},"id":"EM844388517,NAVTEQ"},{"type":"Feature","properties":{"name":"KOBE-SHI","parent":"22928357,NAVTEQ","officialNames":{"en":"KOBE-SHI"}},"geometry":{"type":"Point","coordinates":[135.22243,34.70388]},"id":"EM844394287,NAVTEQ"},{"type":"Feature","properties":{"name":"TOKYO","parent":"22928357,NAVTEQ","officialNames":{"en":"TOKYO"}},"geometry":{"type":"Point","coordinates":[139.80895,35.68321]},"id":"EM844435769,NAVTEQ"},{"type":"Feature","properties":{"name":"SAKATA-SHI","parent":"22928357,NAVTEQ","officialNames":{"en":"SAKATA-SHI"}},"geometry":{"type":"Point","coordinates":[139.83783,38.91679]},"id":"EM844386893,NAVTEQ"},{"type":"Feature","properties":{"name":"DAITO","parent":"22928357,NAVTEQ","officialNames":{"en":"DAITO"}},"geometry":{"type":"Point","coordinates":[141.44903,39.07341]},"id":"EM844420461,NAVTEQ"},{"type":"Feature","properties":{"name":"SUMA-KU","parent":"22928357,NAVTEQ","officialNames":{"en":"SUMA-KU"}},"geometry":{"type":"Point","coordinates":[135.11954,34.65725]},"id":"EM844446952,NAVTEQ"},{"type":"Feature","properties":{"name":"YODOGAWA-KU","parent":"22928357,NAVTEQ","officialNames":{"en":"YODOGAWA-KU"}},"geometry":{"type":"Point","coordinates":[135.49366,34.73166]},"id":"EM844443969,NAVTEQ"},{"type":"Feature","properties":{"name":"SANUMA","parent":"22928357,NAVTEQ","officialNames":{"en":"SANUMA"}},"geometry":{"type":"Point","coordinates":[141.2021,38.6818]},"id":"EM844386734,NAVTEQ"},{"type":"Feature","properties":{"name":"NISHIO-SHI","parent":"22928357,NAVTEQ","officialNames":{"en":"NISHIO-SHI"}},"geometry":{"type":"Point","coordinates":[137.03513,34.86869]},"id":"EM844414907,NAVTEQ"},{"type":"Feature","properties":{"name":"KAKAMIGAHARA-SHI","parent":"22928357,NAVTEQ","officialNames":{"en":"KAKAMIGAHARA-SHI"}},"geometry":{"type":"Point","coordinates":[136.84399,35.39367]},"id":"EM844388228,NAVTEQ"},{"type":"Feature","properties":{"name":"KUMAMOTO-SHI","parent":"22928357,NAVTEQ","officialNames":{"en":"KUMAMOTO-SHI"}},"geometry":{"type":"Point","coordinates":[130.71145,32.79439]},"id":"EM844428458,NAVTEQ"},{"type":"Feature","properties":{"name":"KUMAGAYA-SHI","parent":"22928357,NAVTEQ","officialNames":{"en":"KUMAGAYA-SHI"}},"geometry":{"type":"Point","coordinates":[139.33365,36.20009]},"id":"EM844396425,NAVTEQ"},{"type":"Feature","properties":{"name":"YOKOHAMA","parent":"22928357,NAVTEQ","officialNames":{"en":"YOKOHAMA"}},"geometry":{"type":"Point","coordinates":[141.25337,41.0497]},"id":"EM844444419,NAVTEQ"},{"type":"Feature","properties":{"name":"SHIZUOKA-SHI","parent":"22928357,NAVTEQ","officialNames":{"en":"SHIZUOKA-SHI"}},"geometry":{"type":"Point","coordinates":[138.39224,34.98311]},"id":"EM844444316,NAVTEQ"},{"type":"Feature","properties":{"name":"YAHATANISHI-KU","parent":"22928357,NAVTEQ","officialNames":{"en":"YAHATANISHI-KU"}},"geometry":{"type":"Point","coordinates":[130.78193,33.90776]},"id":"EM844395924,NAVTEQ"},{"type":"Feature","properties":{"name":"CHIKUSACHO","parent":"22928357,NAVTEQ","officialNames":{"en":"CHIKUSACHO"}},"geometry":{"type":"Point","coordinates":[136.94766,35.16907]},"id":"EM844422034,NAVTEQ"},{"type":"Feature","properties":{"name":"SHIMONOSEKI-SHI","parent":"22928357,NAVTEQ","officialNames":{"en":"SHIMONOSEKI-SHI"}},"geometry":{"type":"Point","coordinates":[130.9413,33.95866]},"id":"EM844419031,NAVTEQ"},{"type":"Feature","properties":{"name":"NIIGATA-SHI","parent":"22928357,NAVTEQ","officialNames":{"en":"NIIGATA-SHI"}},"geometry":{"type":"Point","coordinates":[139.08084,37.93006]},"id":"EM844430673,NAVTEQ"},{"type":"Feature","properties":{"name":"UJI-SHI","parent":"22928357,NAVTEQ","officialNames":{"en":"UJI-SHI"}},"geometry":{"type":"Point","coordinates":[135.80745,34.8908]},"id":"EM844414601,NAVTEQ"},{"type":"Feature","properties":{"name":"KAWAGOE-SHI","parent":"22928357,NAVTEQ","officialNames":{"en":"KAWAGOE-SHI"}},"geometry":{"type":"Point","coordinates":[139.48822,35.918]},"id":"EM844442595,NAVTEQ"},{"type":"Feature","properties":{"name":"KATSUTA","parent":"22928357,NAVTEQ","officialNames":{"en":"KATSUTA"}},"geometry":{"type":"Point","coordinates":[140.5345,36.35291]},"id":"EM844413240,NAVTEQ"},{"type":"Feature","properties":{"name":"MURORAN-SHI","parent":"22928357,NAVTEQ","officialNames":{"en":"MURORAN-SHI"}},"geometry":{"type":"Point","coordinates":[140.99448,42.32603]},"id":"EM844446070,NAVTEQ"},{"type":"Feature","properties":{"name":"FUSHIMI-KU","parent":"22928357,NAVTEQ","officialNames":{"en":"FUSHIMI-KU"}},"geometry":{"type":"Point","coordinates":[135.77793,34.9321]},"id":"EM844401975,NAVTEQ"},{"type":"Feature","properties":{"name":"TSUKUBA-SHI","parent":"22928357,NAVTEQ","officialNames":{"en":"TSUKUBA-SHI"}},"geometry":{"type":"Point","coordinates":[140.1305,36.09052]},"id":"EM844439485,NAVTEQ"},{"type":"Feature","properties":{"name":"SAGA-SHI","parent":"22928357,NAVTEQ","officialNames":{"en":"SAGA-SHI"}},"geometry":{"type":"Point","coordinates":[130.2928,33.24324]},"id":"EM844439228,NAVTEQ"},{"type":"Feature","properties":{"name":"SUZUKA-SHI","parent":"22928357,NAVTEQ","officialNames":{"en":"SUZUKA-SHI"}},"geometry":{"type":"Point","coordinates":[136.60007,34.87911]},"id":"EM844415149,NAVTEQ"},{"type":"Feature","properties":{"name":"MITAKA-SHI","parent":"22928357,NAVTEQ","officialNames":{"en":"MITAKA-SHI"}},"geometry":{"type":"Point","coordinates":[139.55117,35.67644]},"id":"EM844431001,NAVTEQ"},{"type":"Feature","properties":{"name":"HAKODATE-SHI","parent":"22928357,NAVTEQ","officialNames":{"en":"HAKODATE-SHI"}},"geometry":{"type":"Point","coordinates":[140.74251,41.7915]},"id":"EM844405363,NAVTEQ"},{"type":"Feature","properties":{"name":"OTA-SHI","parent":"22928357,NAVTEQ","officialNames":{"en":"OTA-SHI"}},"geometry":{"type":"Point","coordinates":[139.37175,36.29328]},"id":"EM844424985,NAVTEQ"},{"type":"Feature","properties":{"name":"YACHIYO-SHI","parent":"22928357,NAVTEQ","officialNames":{"en":"YACHIYO-SHI"}},"geometry":{"type":"Point","coordinates":[140.0868,35.77303]},"id":"EM844416017,NAVTEQ"},{"type":"Feature","properties":{"name":"KADOMA-SHI","parent":"22928357,NAVTEQ","officialNames":{"en":"KADOMA-SHI"}},"geometry":{"type":"Point","coordinates":[135.56975,34.72987]},"id":"EM844405465,NAVTEQ"},{"type":"Feature","properties":{"name":"HIRATSUKA-SHI","parent":"22928357,NAVTEQ","officialNames":{"en":"HIRATSUKA-SHI"}},"geometry":{"type":"Point","coordinates":[139.36932,35.3302]},"id":"EM844406718,NAVTEQ"},{"type":"Feature","properties":{"name":"IKEDA-SHI","parent":"22928357,NAVTEQ","officialNames":{"en":"IKEDA-SHI"}},"geometry":{"type":"Point","coordinates":[135.4417,34.81614]},"id":"EM844394587,NAVTEQ"},{"type":"Feature","properties":{"name":"OKAYAMA-SHI","parent":"22928357,NAVTEQ","officialNames":{"en":"OKAYAMA-SHI"}},"geometry":{"type":"Point","coordinates":[133.91008,34.66361]},"id":"EM844408586,NAVTEQ"},{"type":"Feature","properties":{"name":"AOBA-KU","parent":"22928357,NAVTEQ","officialNames":{"en":"AOBA-KU"}},"geometry":{"type":"Point","coordinates":[139.54388,35.54863]},"id":"EM844418667,NAVTEQ"},{"type":"Feature","properties":{"name":"IRUMA-SHI","parent":"22928357,NAVTEQ","officialNames":{"en":"IRUMA-SHI"}},"geometry":{"type":"Point","coordinates":[139.40027,35.75878]},"id":"EM844445439,NAVTEQ"},{"type":"Feature","properties":{"name":"TAKAMATSU","parent":"22928357,NAVTEQ","officialNames":{"en":"TAKAMATSU"}},"geometry":{"type":"Point","coordinates":[136.71948,36.76903]},"id":"EM844418043,NAVTEQ"},{"type":"Feature","properties":{"name":"MOOKA-SHI","parent":"22928357,NAVTEQ","officialNames":{"en":"MOOKA-SHI"}},"geometry":{"type":"Point","coordinates":[139.96662,36.40592]},"id":"EM844425590,NAVTEQ"},{"type":"Feature","properties":{"name":"GIFU-SHI","parent":"22928357,NAVTEQ","officialNames":{"en":"GIFU-SHI"}},"geometry":{"type":"Point","coordinates":[136.77135,35.41353]},"id":"EM844400320,NAVTEQ"},{"type":"Feature","properties":{"name":"HIROSHIMA","parent":"22928357,NAVTEQ","officialNames":{"en":"HIROSHIMA"}},"geometry":{"type":"Point","coordinates":[141.5726,42.95063]},"id":"EM844394896,NAVTEQ"},{"type":"Feature","properties":{"name":"YOKKAICHI-SHI","parent":"22928357,NAVTEQ","officialNames":{"en":"YOKKAICHI-SHI"}},"geometry":{"type":"Point","coordinates":[136.62023,34.95946]},"id":"EM844396281,NAVTEQ"},{"type":"Feature","properties":{"name":"KAWAGUCHI","parent":"22928357,NAVTEQ","officialNames":{"en":"KAWAGUCHI"}},"geometry":{"type":"Point","coordinates":[140.05102,35.06154]},"id":"EM844446976,NAVTEQ"},{"type":"Feature","properties":{"name":"SETAGAYA-KU","parent":"22928357,NAVTEQ","officialNames":{"en":"SETAGAYA-KU"}},"geometry":{"type":"Point","coordinates":[139.64897,35.6387]},"id":"EM844445530,NAVTEQ"},{"type":"Feature","properties":{"name":"TONDABAYASHI-SHI","parent":"22928357,NAVTEQ","officialNames":{"en":"TONDABAYASHI-SHI"}},"geometry":{"type":"Point","coordinates":[135.5787,34.50879]},"id":"EM844403708,NAVTEQ"},{"type":"Feature","properties":{"name":"SETO-SHI","parent":"22928357,NAVTEQ","officialNames":{"en":"SETO-SHI"}},"geometry":{"type":"Point","coordinates":[137.09317,35.21211]},"id":"EM844429314,NAVTEQ"},{"type":"Feature","properties":{"name":"IWAKI-SHI","parent":"22928357,NAVTEQ","officialNames":{"en":"IWAKI-SHI"}},"geometry":{"type":"Point","coordinates":[140.95802,37.02358]},"id":"EM844409053,NAVTEQ"},{"type":"Feature","properties":{"name":"TOSHIMA-KU","parent":"22928357,NAVTEQ","officialNames":{"en":"TOSHIMA-KU"}},"geometry":{"type":"Point","coordinates":[139.7582,35.72228]},"id":"EM844424687,NAVTEQ"},{"type":"Feature","properties":{"name":"KAMAKURA-SHI","parent":"22928357,NAVTEQ","officialNames":{"en":"KAMAKURA-SHI"}},"geometry":{"type":"Point","coordinates":[139.54946,35.31126]},"id":"EM844420340,NAVTEQ"},{"type":"Feature","properties":{"name":"FUKUDAMACHI","parent":"22928357,NAVTEQ","officialNames":{"en":"FUKUDAMACHI"}},"geometry":{"type":"Point","coordinates":[140.99776,38.27917]},"id":"EM844395625,NAVTEQ"},{"type":"Feature","properties":{"name":"SAGAMIHARA-SHI","parent":"22928357,NAVTEQ","officialNames":{"en":"SAGAMIHARA-SHI"}},"geometry":{"type":"Point","coordinates":[139.3866,35.57018]},"id":"EM844415078,NAVTEQ"},{"type":"Feature","properties":{"name":"MIYAZAKI","parent":"22928357,NAVTEQ","officialNames":{"en":"MIYAZAKI"}},"geometry":{"type":"Point","coordinates":[140.70114,38.63649]},"id":"EM844418695,NAVTEQ"},{"type":"Feature","properties":{"name":"BEPPU-SHI","parent":"22928357,NAVTEQ","officialNames":{"en":"BEPPU-SHI"}},"geometry":{"type":"Point","coordinates":[131.50202,33.27444]},"id":"EM844420168,NAVTEQ"},{"type":"Feature","properties":{"name":"TAJIMI-SHI","parent":"22928357,NAVTEQ","officialNames":{"en":"TAJIMI-SHI"}},"geometry":{"type":"Point","coordinates":[137.07198,35.34583]},"id":"EM844445523,NAVTEQ"},{"type":"Feature","properties":{"name":"AKITA-SHI","parent":"22928357,NAVTEQ","officialNames":{"en":"AKITA-SHI"}},"geometry":{"type":"Point","coordinates":[140.0751,39.74231]},"id":"EM844410497,NAVTEQ"},{"type":"Feature","properties":{"name":"HIGASHINADA-KU","parent":"22928357,NAVTEQ","officialNames":{"en":"HIGASHINADA-KU"}},"geometry":{"type":"Point","coordinates":[135.2538,34.72023]},"id":"EM844421708,NAVTEQ"},{"type":"Feature","properties":{"name":"NISHI-KU","parent":"22928357,NAVTEQ","officialNames":{"en":"NISHI-KU"}},"geometry":{"type":"Point","coordinates":[134.99138,34.74258]},"id":"EM844424677,NAVTEQ"},{"type":"Feature","properties":{"name":"ASAMINAMI-KU","parent":"22928357,NAVTEQ","officialNames":{"en":"ASAMINAMI-KU"}},"geometry":{"type":"Point","coordinates":[132.45183,34.39322]},"id":"EM844428202,NAVTEQ"},{"type":"Feature","properties":{"name":"TENPAKU-KU","parent":"22928357,NAVTEQ","officialNames":{"en":"TENPAKU-KU"}},"geometry":{"type":"Point","coordinates":[136.99978,35.14422]},"id":"EM844390345,NAVTEQ"},{"type":"Feature","properties":{"name":"UWANO","parent":"22928357,NAVTEQ","officialNames":{"en":"UWANO"}},"geometry":{"type":"Point","coordinates":[136.02235,33.86298]},"id":"EM844393758,NAVTEQ"},{"type":"Feature","properties":{"name":"AOBA-KU","parent":"22928357,NAVTEQ","officialNames":{"en":"AOBA-KU"}},"geometry":{"type":"Point","coordinates":[140.63908,38.38429]},"id":"EM844416423,NAVTEQ"},{"type":"Feature","properties":{"name":"HADANO-SHI","parent":"22928357,NAVTEQ","officialNames":{"en":"HADANO-SHI"}},"geometry":{"type":"Point","coordinates":[139.2438,35.34964]},"id":"EM844401349,NAVTEQ"},{"type":"Feature","properties":{"name":"KAMI-SHIOJIRI","parent":"22928357,NAVTEQ","officialNames":{"en":"KAMI-SHIOJIRI"}},"geometry":{"type":"Point","coordinates":[138.21101,36.4237]},"id":"EM844440162,NAVTEQ"},{"type":"Feature","properties":{"name":"HYOGO-KU","parent":"22928357,NAVTEQ","officialNames":{"en":"HYOGO-KU"}},"geometry":{"type":"Point","coordinates":[135.17342,34.6741]},"id":"EM844400191,NAVTEQ"},{"type":"Feature","properties":{"name":"ZAMA-SHI","parent":"22928357,NAVTEQ","officialNames":{"en":"ZAMA-SHI"}},"geometry":{"type":"Point","coordinates":[139.36356,35.51173]},"id":"EM844429063,NAVTEQ"},{"type":"Feature","properties":{"name":"KAWACHI-NAGANO","parent":"22928357,NAVTEQ","officialNames":{"en":"KAWACHI-NAGANO"}},"geometry":{"type":"Point","coordinates":[135.55469,34.49181]},"id":"EM844404849,NAVTEQ"},{"type":"Feature","properties":{"name":"MATSUMOTO-SHI","parent":"22928357,NAVTEQ","officialNames":{"en":"MATSUMOTO-SHI"}},"geometry":{"type":"Point","coordinates":[137.96696,36.23245]},"id":"EM844433880,NAVTEQ"},{"type":"Feature","properties":{"name":"TSURUMI-KU","parent":"22928357,NAVTEQ","officialNames":{"en":"TSURUMI-KU"}},"geometry":{"type":"Point","coordinates":[135.58008,34.70862]},"id":"EM844401613,NAVTEQ"},{"type":"Feature","properties":{"name":"SAKURA","parent":"22928357,NAVTEQ","officialNames":{"en":"SAKURA"}},"geometry":{"type":"Point","coordinates":[143.30817,43.12099]},"id":"EM844428705,NAVTEQ"},{"type":"Feature","properties":{"name":"NERIMA-KU","parent":"22928357,NAVTEQ","officialNames":{"en":"NERIMA-KU"}},"geometry":{"type":"Point","coordinates":[139.62141,35.74101]},"id":"EM844422208,NAVTEQ"},{"type":"Feature","properties":{"name":"NARA","parent":"22928357,NAVTEQ","officialNames":{"en":"NARA"}},"geometry":{"type":"Point","coordinates":[130.75717,33.65185]},"id":"EM844436093,NAVTEQ"},{"type":"Feature","properties":{"name":"MINATO-KU","parent":"22928357,NAVTEQ","officialNames":{"en":"MINATO-KU"}},"geometry":{"type":"Point","coordinates":[139.74865,35.6423]},"id":"EM844389603,NAVTEQ"},{"type":"Feature","properties":{"name":"HIROSHIMA-SHI","parent":"22928357,NAVTEQ","officialNames":{"en":"HIROSHIMA-SHI"}},"geometry":{"type":"Point","coordinates":[132.46978,34.37904]},"id":"EM844423670,NAVTEQ"},{"type":"Feature","properties":{"name":"HACHINOHE-SHI","parent":"22928357,NAVTEQ","officialNames":{"en":"HACHINOHE-SHI"}},"geometry":{"type":"Point","coordinates":[141.49437,40.5004]},"id":"EM844427647,NAVTEQ"},{"type":"Feature","properties":{"name":"SAPPORO-SHI","parent":"22928357,NAVTEQ","officialNames":{"en":"SAPPORO-SHI"}},"geometry":{"type":"Point","coordinates":[141.35022,43.05801]},"id":"EM844426983,NAVTEQ"},{"type":"Feature","properties":{"name":"ANJO","parent":"22928357,NAVTEQ","officialNames":{"en":"ANJO"}},"geometry":{"type":"Point","coordinates":[131.0573,30.675]},"id":"EM844432203,NAVTEQ"},{"type":"Feature","properties":{"name":"OTA","parent":"22928357,NAVTEQ","officialNames":{"en":"OTA"}},"geometry":{"type":"Point","coordinates":[136.07527,35.9488]},"id":"EM844423483,NAVTEQ"},{"type":"Feature","properties":{"name":"SHINAGAWA-KU","parent":"22928357,NAVTEQ","officialNames":{"en":"SHINAGAWA-KU"}},"geometry":{"type":"Point","coordinates":[139.74865,35.6423]},"id":"EM844423688,NAVTEQ"},{"type":"Feature","properties":{"name":"KASUKABE-SHI","parent":"22928357,NAVTEQ","officialNames":{"en":"KASUKABE-SHI"}},"geometry":{"type":"Point","coordinates":[139.70553,35.95641]},"id":"EM844400897,NAVTEQ"},{"type":"Feature","properties":{"name":"TACHIKAWA-SHI","parent":"22928357,NAVTEQ","officialNames":{"en":"TACHIKAWA-SHI"}},"geometry":{"type":"Point","coordinates":[139.41395,35.70051]},"id":"EM844389324,NAVTEQ"},{"type":"Feature","properties":{"name":"HIROMACHI","parent":"22928357,NAVTEQ","officialNames":{"en":"HIROMACHI"}},"geometry":{"type":"Point","coordinates":[132.61046,34.23171]},"id":"EM844427630,NAVTEQ"},{"type":"Feature","properties":{"name":"TAKASAKI-SHI","parent":"22928357,NAVTEQ","officialNames":{"en":"TAKASAKI-SHI"}},"geometry":{"type":"Point","coordinates":[139.01436,36.32622]},"id":"EM844401620,NAVTEQ"},{"type":"Feature","properties":{"name":"UNO","parent":"22928357,NAVTEQ","officialNames":{"en":"UNO"}},"geometry":{"type":"Point","coordinates":[133.93968,34.47587]},"id":"EM844401824,NAVTEQ"},{"type":"Feature","properties":{"name":"CHOFU-SHI","parent":"22928357,NAVTEQ","officialNames":{"en":"CHOFU-SHI"}},"geometry":{"type":"Point","coordinates":[139.52703,35.6374]},"id":"EM844394429,NAVTEQ"},{"type":"Feature","properties":{"name":"FUJIEDA-SHI","parent":"22928357,NAVTEQ","officialNames":{"en":"FUJIEDA-SHI"}},"geometry":{"type":"Point","coordinates":[138.25664,34.87422]},"id":"EM844437436,NAVTEQ"},{"type":"Feature","properties":{"name":"TAKAMATSU-SHI","parent":"22928357,NAVTEQ","officialNames":{"en":"TAKAMATSU-SHI"}},"geometry":{"type":"Point","coordinates":[134.045,34.33897]},"id":"EM844416020,NAVTEQ"},{"type":"Feature","properties":{"name":"KODAIRA-SHI","parent":"22928357,NAVTEQ","officialNames":{"en":"KODAIRA-SHI"}},"geometry":{"type":"Point","coordinates":[139.53624,35.72067]},"id":"EM844443274,NAVTEQ"},{"type":"Feature","properties":{"name":"ASHIKAGA-SHI","parent":"22928357,NAVTEQ","officialNames":{"en":"ASHIKAGA-SHI"}},"geometry":{"type":"Point","coordinates":[139.46243,36.33552]},"id":"EM844397999,NAVTEQ"},{"type":"Feature","properties":{"name":"SEKIMACHI","parent":"22928357,NAVTEQ","officialNames":{"en":"SEKIMACHI"}},"geometry":{"type":"Point","coordinates":[136.91562,35.48306]},"id":"EM844408199,NAVTEQ"},{"type":"Feature","properties":{"name":"SAKAI","parent":"22928357,NAVTEQ","officialNames":{"en":"SAKAI"}},"geometry":{"type":"Point","coordinates":[135.27415,34.15639]},"id":"EM844389986,NAVTEQ"},{"type":"Feature","properties":{"name":"NAGATA-KU","parent":"22928357,NAVTEQ","officialNames":{"en":"NAGATA-KU"}},"geometry":{"type":"Point","coordinates":[135.1511,34.65669]},"id":"EM844395815,NAVTEQ"},{"type":"Feature","properties":{"name":"NEYAGAWA-SHI","parent":"22928357,NAVTEQ","officialNames":{"en":"NEYAGAWA-SHI"}},"geometry":{"type":"Point","coordinates":[135.67114,34.66117]},"id":"EM844431217,NAVTEQ"},{"type":"Feature","properties":{"name":"ISE-SHI","parent":"22928357,NAVTEQ","officialNames":{"en":"ISE-SHI"}},"geometry":{"type":"Point","coordinates":[136.71711,34.49145]},"id":"EM844430380,NAVTEQ"},{"type":"Feature","properties":{"name":"TOMAKOMAI-SHI","parent":"22928357,NAVTEQ","officialNames":{"en":"TOMAKOMAI-SHI"}},"geometry":{"type":"Point","coordinates":[141.60151,42.63446]},"id":"EM844385833,NAVTEQ"},{"type":"Feature","properties":{"name":"FUJISAWA-SHI","parent":"22928357,NAVTEQ","officialNames":{"en":"FUJISAWA-SHI"}},"geometry":{"type":"Point","coordinates":[139.47747,35.33775]},"id":"EM844393934,NAVTEQ"},{"type":"Feature","properties":{"name":"NADA-KU","parent":"22928357,NAVTEQ","officialNames":{"en":"NADA-KU"}},"geometry":{"type":"Point","coordinates":[135.2538,34.72023]},"id":"EM844438101,NAVTEQ"},{"type":"Feature","properties":{"name":"KOSHIGAYA-SHI","parent":"22928357,NAVTEQ","officialNames":{"en":"KOSHIGAYA-SHI"}},"geometry":{"type":"Point","coordinates":[139.77542,35.895]},"id":"EM844444930,NAVTEQ"},{"type":"Feature","properties":{"name":"SOKA-SHI","parent":"22928357,NAVTEQ","officialNames":{"en":"SOKA-SHI"}},"geometry":{"type":"Point","coordinates":[139.7934,35.82725]},"id":"EM844391613,NAVTEQ"},{"type":"Feature","properties":{"name":"SAIJO","parent":"22928357,NAVTEQ","officialNames":{"en":"SAIJO"}},"geometry":{"type":"Point","coordinates":[133.08033,34.88913]},"id":"EM844395039,NAVTEQ"},{"type":"Feature","properties":{"name":"OTA-KU","parent":"22928357,NAVTEQ","officialNames":{"en":"OTA-KU"}},"geometry":{"type":"Point","coordinates":[139.8201,35.66771]},"id":"EM844412415,NAVTEQ"},{"type":"Feature","properties":{"name":"IMABARI","parent":"22928357,NAVTEQ","officialNames":{"en":"IMABARI"}},"geometry":{"type":"Point","coordinates":[133.00571,34.05822]},"id":"EM844385837,NAVTEQ"},{"type":"Feature","properties":{"name":"KOFU-SHI","parent":"22928357,NAVTEQ","officialNames":{"en":"KOFU-SHI"}},"geometry":{"type":"Point","coordinates":[138.57651,35.64717]},"id":"EM844436488,NAVTEQ"},{"type":"Feature","properties":{"name":"FUKUOKA-SHI","parent":"22928357,NAVTEQ","officialNames":{"en":"FUKUOKA-SHI"}},"geometry":{"type":"Point","coordinates":[130.38364,33.58325]},"id":"EM844423698,NAVTEQ"},{"type":"Feature","properties":{"name":"TOYOTA-SHI","parent":"22928357,NAVTEQ","officialNames":{"en":"TOYOTA-SHI"}},"geometry":{"type":"Point","coordinates":[137.16495,35.08678]},"id":"EM844405619,NAVTEQ"},{"type":"Feature","properties":{"name":"YAIZU-SHI","parent":"22928357,NAVTEQ","officialNames":{"en":"YAIZU-SHI"}},"geometry":{"type":"Point","coordinates":[138.32376,34.86425]},"id":"EM844439167,NAVTEQ"},{"type":"Feature","properties":{"name":"TOYOHASHI-SHI","parent":"22928357,NAVTEQ","officialNames":{"en":"TOYOHASHI-SHI"}},"geometry":{"type":"Point","coordinates":[137.39222,34.75705]},"id":"EM844398944,NAVTEQ"},{"type":"Feature","properties":{"name":"ANJOMACHI","parent":"22928357,NAVTEQ","officialNames":{"en":"ANJOMACHI"}},"geometry":{"type":"Point","coordinates":[137.09326,34.96291]},"id":"EM844395969,NAVTEQ"},{"type":"Feature","properties":{"name":"IWAKI","parent":"22928357,NAVTEQ","officialNames":{"en":"IWAKI"}},"geometry":{"type":"Point","coordinates":[140.07769,39.73635]},"id":"EM844390368,NAVTEQ"},{"type":"Feature","properties":{"name":"IBARAKI-SHI","parent":"22928357,NAVTEQ","officialNames":{"en":"IBARAKI-SHI"}},"geometry":{"type":"Point","coordinates":[135.54227,34.82265]},"id":"EM844418294,NAVTEQ"},{"type":"Feature","properties":{"name":"TOKUYAMA-SHI","parent":"22928357,NAVTEQ","officialNames":{"en":"TOKUYAMA-SHI"}},"geometry":{"type":"Point","coordinates":[131.81056,34.06161]},"id":"EM844420282,NAVTEQ"},{"type":"Feature","properties":{"name":"ITAMI-SHI","parent":"22928357,NAVTEQ","officialNames":{"en":"ITAMI-SHI"}},"geometry":{"type":"Point","coordinates":[135.45466,34.77593]},"id":"EM844416159,NAVTEQ"},{"type":"Feature","properties":{"name":"HITACHI-SHI","parent":"22928357,NAVTEQ","officialNames":{"en":"HITACHI-SHI"}},"geometry":{"type":"Point","coordinates":[140.65242,36.59605]},"id":"EM844445208,NAVTEQ"},{"type":"Feature","properties":{"name":"EBINA-SHI","parent":"22928357,NAVTEQ","officialNames":{"en":"EBINA-SHI"}},"geometry":{"type":"Point","coordinates":[139.39166,35.45317]},"id":"EM844441914,NAVTEQ"},{"type":"Feature","properties":{"name":"KAMAGAYA-SHI","parent":"22928357,NAVTEQ","officialNames":{"en":"KAMAGAYA-SHI"}},"geometry":{"type":"Point","coordinates":[139.94508,35.7879]},"id":"EM844445802,NAVTEQ"},{"type":"Feature","properties":{"name":"NAGASAKI","parent":"22928357,NAVTEQ","officialNames":{"en":"NAGASAKI"}},"geometry":{"type":"Point","coordinates":[140.27696,38.35007]},"id":"EM844441682,NAVTEQ"},{"type":"Feature","properties":{"name":"SAKU","parent":"22928357,NAVTEQ","officialNames":{"en":"SAKU"}},"geometry":{"type":"Point","coordinates":[142.14207,44.73114]},"id":"EM844424019,NAVTEQ"},{"type":"Feature","properties":{"name":"INAZAWA-SHI","parent":"22928357,NAVTEQ","officialNames":{"en":"INAZAWA-SHI"}},"geometry":{"type":"Point","coordinates":[136.77197,35.25087]},"id":"EM844417921,NAVTEQ"},{"type":"Feature","properties":{"name":"MUSA","parent":"22928357,NAVTEQ","officialNames":{"en":"MUSA"}},"geometry":{"type":"Point","coordinates":[144.91584,43.5955]},"id":"EM844431760,NAVTEQ"},{"type":"Feature","properties":{"name":"MIHARA","parent":"22928357,NAVTEQ","officialNames":{"en":"MIHARA"}},"geometry":{"type":"Point","coordinates":[138.56349,36.54473]},"id":"EM844401423,NAVTEQ"},{"type":"Feature","properties":{"name":"SAYAMA-SHI","parent":"22928357,NAVTEQ","officialNames":{"en":"SAYAMA-SHI"}},"geometry":{"type":"Point","coordinates":[139.42947,35.883]},"id":"EM844393677,NAVTEQ"},{"type":"Feature","properties":{"name":"FUKUSHIMA-SHI","parent":"22928357,NAVTEQ","officialNames":{"en":"FUKUSHIMA-SHI"}},"geometry":{"type":"Point","coordinates":[140.4854,37.74318]},"id":"EM844437765,NAVTEQ"},{"type":"Feature","properties":{"name":"NAGAREYAMA-SHI","parent":"22928357,NAVTEQ","officialNames":{"en":"NAGAREYAMA-SHI"}},"geometry":{"type":"Point","coordinates":[139.9212,35.8149]},"id":"EM844446167,NAVTEQ"},{"type":"Feature","properties":{"name":"YAMATO","parent":"22928357,NAVTEQ","officialNames":{"en":"YAMATO"}},"geometry":{"type":"Point","coordinates":[139.76021,37.63816]},"id":"EM844400061,NAVTEQ"},{"type":"Feature","properties":{"name":"MIYAZAKI-SHI","parent":"22928357,NAVTEQ","officialNames":{"en":"MIYAZAKI-SHI"}},"geometry":{"type":"Point","coordinates":[131.42111,31.91243]},"id":"EM844442813,NAVTEQ"},{"type":"Feature","properties":{"name":"OSAKA-WAN","parent":"22928357,NAVTEQ","officialNames":{"en":"OSAKA-WAN"}},"geometry":{"type":"Point","coordinates":[135.52049,34.64618]},"id":"EM844446000,NAVTEQ"},{"type":"Feature","properties":{"name":"NUMAZU-SHI","parent":"22928357,NAVTEQ","officialNames":{"en":"NUMAZU-SHI"}},"geometry":{"type":"Point","coordinates":[138.87663,35.08442]},"id":"EM844444052,NAVTEQ"},{"type":"Feature","properties":{"name":"MINO-SHI","parent":"22928357,NAVTEQ","officialNames":{"en":"MINO-SHI"}},"geometry":{"type":"Point","coordinates":[135.45172,34.80673]},"id":"EM844443293,NAVTEQ"},{"type":"Feature","properties":{"name":"IMAZU","parent":"22928357,NAVTEQ","officialNames":{"en":"IMAZU"}},"geometry":{"type":"Point","coordinates":[132.22288,34.16974]},"id":"EM844416664,NAVTEQ"},{"type":"Feature","properties":{"name":"FUKUI-SHI","parent":"22928357,NAVTEQ","officialNames":{"en":"FUKUI-SHI"}},"geometry":{"type":"Point","coordinates":[136.21958,36.06865]},"id":"EM844444544,NAVTEQ"},{"type":"Feature","properties":{"name":"KUWANA-SHI","parent":"22928357,NAVTEQ","officialNames":{"en":"KUWANA-SHI"}},"geometry":{"type":"Point","coordinates":[136.69389,35.06813]},"id":"EM844431337,NAVTEQ"},{"type":"Feature","properties":{"name":"MOJI-KU","parent":"22928357,NAVTEQ","officialNames":{"en":"MOJI-KU"}},"geometry":{"type":"Point","coordinates":[130.94663,33.90975]},"id":"EM844395668,NAVTEQ"},{"type":"Feature","properties":{"name":"TSURUMI","parent":"22928357,NAVTEQ","officialNames":{"en":"TSURUMI"}},"geometry":{"type":"Point","coordinates":[139.72058,35.5251]},"id":"EM844418428,NAVTEQ"},{"type":"Feature","properties":{"name":"JOETSU-SHI","parent":"22928357,NAVTEQ","officialNames":{"en":"JOETSU-SHI"}},"geometry":{"type":"Point","coordinates":[138.23951,37.13484]},"id":"EM844408887,NAVTEQ"},{"type":"Feature","properties":{"name":"ATSUGACHO","parent":"22928357,NAVTEQ","officialNames":{"en":"ATSUGACHO"}},"geometry":{"type":"Point","coordinates":[142.2696,42.40199]},"id":"EM844440096,NAVTEQ"},{"type":"Feature","properties":{"name":"SUMINOE-KU","parent":"22928357,NAVTEQ","officialNames":{"en":"SUMINOE-KU"}},"geometry":{"type":"Point","coordinates":[135.47447,34.59965]},"id":"EM844391403,NAVTEQ"},{"type":"Feature","properties":{"name":"MORIOKA-SHI","parent":"22928357,NAVTEQ","officialNames":{"en":"MORIOKA-SHI"}},"geometry":{"type":"Point","coordinates":[141.1534,39.69434]},"id":"EM844421318,NAVTEQ"},{"type":"Feature","properties":{"name":"ASAHIKAWA-SHI","parent":"22928357,NAVTEQ","officialNames":{"en":"ASAHIKAWA-SHI"}},"geometry":{"type":"Point","coordinates":[142.37166,43.77647]},"id":"EM844435703,NAVTEQ"},{"type":"Feature","properties":{"name":"TOYOKAWA-SHI","parent":"22928357,NAVTEQ","officialNames":{"en":"TOYOKAWA-SHI"}},"geometry":{"type":"Point","coordinates":[137.31649,34.85097]},"id":"EM844444785,NAVTEQ"},{"type":"Feature","properties":{"name":"TAISHO-KU","parent":"22928357,NAVTEQ","officialNames":{"en":"TAISHO-KU"}},"geometry":{"type":"Point","coordinates":[135.47751,34.66456]},"id":"EM844434567,NAVTEQ"},{"type":"Feature","properties":{"name":"YAO-SHI","parent":"22928357,NAVTEQ","officialNames":{"en":"YAO-SHI"}},"geometry":{"type":"Point","coordinates":[135.59939,34.6189]},"id":"EM844420529,NAVTEQ"},{"type":"Feature","properties":{"name":"AOMORI-SHI","parent":"22928357,NAVTEQ","officialNames":{"en":"AOMORI-SHI"}},"geometry":{"type":"Point","coordinates":[140.75302,40.8215]},"id":"EM844438533,NAVTEQ"},{"type":"Feature","properties":{"name":"UEDA-SHI","parent":"22928357,NAVTEQ","officialNames":{"en":"UEDA-SHI"}},"geometry":{"type":"Point","coordinates":[138.25027,36.40348]},"id":"EM844441825,NAVTEQ"},{"type":"Feature","properties":{"name":"KASUGA","parent":"22928357,NAVTEQ","officialNames":{"en":"KASUGA"}},"geometry":{"type":"Point","coordinates":[130.07336,33.03083]},"id":"EM844400129,NAVTEQ"},{"type":"Feature","properties":{"name":"TAKAOKA","parent":"22928357,NAVTEQ","officialNames":{"en":"TAKAOKA"}},"geometry":{"type":"Point","coordinates":[131.29014,31.94411]},"id":"EM844399142,NAVTEQ"},{"type":"Feature","properties":{"name":"OKINAWA-SHI","parent":"22928357,NAVTEQ","officialNames":{"en":"OKINAWA-SHI"}},"geometry":{"type":"Point","coordinates":[127.80013,26.3279]},"id":"EM844432183,NAVTEQ"},{"type":"Feature","properties":{"name":"KATAKAI","parent":"22928357,NAVTEQ","officialNames":{"en":"KATAKAI"}},"geometry":{"type":"Point","coordinates":[140.43417,35.5225]},"id":"EM844396618,NAVTEQ"},{"type":"Feature","properties":{"name":"TSURUSAKI-SHI","parent":"22928357,NAVTEQ","officialNames":{"en":"TSURUSAKI-SHI"}},"geometry":{"type":"Point","coordinates":[131.72543,33.16703]},"id":"EM844386041,NAVTEQ"},{"type":"Feature","properties":{"name":"TOKUSHIMA-SHI","parent":"22928357,NAVTEQ","officialNames":{"en":"TOKUSHIMA-SHI"}},"geometry":{"type":"Point","coordinates":[134.55797,34.05929]},"id":"EM844426352,NAVTEQ"},{"type":"Feature","properties":{"name":"KASUGAI-SHI","parent":"22928357,NAVTEQ","officialNames":{"en":"KASUGAI-SHI"}},"geometry":{"type":"Point","coordinates":[136.97944,35.24988]},"id":"EM844386044,NAVTEQ"},{"type":"Feature","properties":{"name":"FUKAYA-SHI","parent":"22928357,NAVTEQ","officialNames":{"en":"FUKAYA-SHI"}},"geometry":{"type":"Point","coordinates":[139.24564,36.1619]},"id":"EM844434836,NAVTEQ"},{"type":"Feature","properties":{"name":"ITABASHI-KU","parent":"22928357,NAVTEQ","officialNames":{"en":"ITABASHI-KU"}},"geometry":{"type":"Point","coordinates":[139.72206,35.75583]},"id":"EM844394842,NAVTEQ"},{"type":"Feature","properties":{"name":"TSU-SHI","parent":"22928357,NAVTEQ","officialNames":{"en":"TSU-SHI"}},"geometry":{"type":"Point","coordinates":[136.51687,34.72528]},"id":"EM844397083,NAVTEQ"},{"type":"Feature","properties":{"name":"ICHIHARA-SHI","parent":"22928357,NAVTEQ","officialNames":{"en":"ICHIHARA-SHI"}},"geometry":{"type":"Point","coordinates":[140.10092,35.5302]},"id":"EM844417328,NAVTEQ"},{"type":"Feature","properties":{"name":"ICHIKAWA-SHI","parent":"22928357,NAVTEQ","officialNames":{"en":"ICHIKAWA-SHI"}},"geometry":{"type":"Point","coordinates":[139.90267,35.73111]},"id":"EM844424767,NAVTEQ"},{"type":"Feature","properties":{"name":"KORIYAMA","parent":"22928357,NAVTEQ","officialNames":{"en":"KORIYAMA"}},"geometry":{"type":"Point","coordinates":[130.47989,31.66801]},"id":"EM844433973,NAVTEQ"},{"type":"Feature","properties":{"name":"HIGASHINARI-KU","parent":"22928357,NAVTEQ","officialNames":{"en":"HIGASHINARI-KU"}},"geometry":{"type":"Point","coordinates":[135.58276,34.67896]},"id":"EM844400557,NAVTEQ"},{"type":"Feature","properties":{"name":"KASHIHARA","parent":"22928357,NAVTEQ","officialNames":{"en":"KASHIHARA"}},"geometry":{"type":"Point","coordinates":[135.80987,33.97059]},"id":"EM844423637,NAVTEQ"},{"type":"Feature","properties":{"name":"CHIGASAKI-SHI","parent":"22928357,NAVTEQ","officialNames":{"en":"CHIGASAKI-SHI"}},"geometry":{"type":"Point","coordinates":[139.39787,35.33124]},"id":"EM844439190,NAVTEQ"},{"type":"Feature","properties":{"name":"TSURUOKA-SHI","parent":"22928357,NAVTEQ","officialNames":{"en":"TSURUOKA-SHI"}},"geometry":{"type":"Point","coordinates":[139.82676,38.72476]},"id":"EM844396222,NAVTEQ"},{"type":"Feature","properties":{"name":"KUSATSU-SHI","parent":"22928357,NAVTEQ","officialNames":{"en":"KUSATSU-SHI"}},"geometry":{"type":"Point","coordinates":[135.88175,35.06794]},"id":"EM844446889,NAVTEQ"},{"type":"Feature","properties":{"name":"OGAKI-SHI","parent":"22928357,NAVTEQ","officialNames":{"en":"OGAKI-SHI"}},"geometry":{"type":"Point","coordinates":[136.62549,35.36264]},"id":"EM844427263,NAVTEQ"},{"type":"Feature","properties":{"name":"NAHA-SHI","parent":"22928357,NAVTEQ","officialNames":{"en":"NAHA-SHI"}},"geometry":{"type":"Point","coordinates":[127.70192,26.1988]},"id":"EM844432581,NAVTEQ"},{"type":"Feature","properties":{"name":"AKASHI-SHI","parent":"22928357,NAVTEQ","officialNames":{"en":"AKASHI-SHI"}},"geometry":{"type":"Point","coordinates":[135.06681,34.65183]},"id":"EM844436814,NAVTEQ"},{"type":"Feature","properties":{"name":"MISHIMACHO","parent":"22928357,NAVTEQ","officialNames":{"en":"MISHIMACHO"}},"geometry":{"type":"Point","coordinates":[137.66445,34.68165]},"id":"EM844414421,NAVTEQ"},{"type":"Feature","properties":{"name":"MORIGUCHI-SHI","parent":"22928357,NAVTEQ","officialNames":{"en":"MORIGUCHI-SHI"}},"geometry":{"type":"Point","coordinates":[135.55163,34.71607]},"id":"EM844411581,NAVTEQ"},{"type":"Feature","properties":{"name":"HIRAKATA","parent":"22928357,NAVTEQ","officialNames":{"en":"HIRAKATA"}},"geometry":{"type":"Point","coordinates":[135.77805,34.77997]},"id":"EM844429785,NAVTEQ"},{"type":"Feature","properties":{"name":"OYAMA","parent":"22928357,NAVTEQ","officialNames":{"en":"OYAMA"}},"geometry":{"type":"Point","coordinates":[138.97711,35.34435]},"id":"EM844419697,NAVTEQ"},{"type":"Feature","properties":{"name":"TAIRA","parent":"22928357,NAVTEQ","officialNames":{"en":"TAIRA"}},"geometry":{"type":"Point","coordinates":[140.95802,37.02358]},"id":"EM844410059,NAVTEQ"},{"type":"Feature","properties":{"name":"HAMAMATSU-SHI","parent":"22928357,NAVTEQ","officialNames":{"en":"HAMAMATSU-SHI"}},"geometry":{"type":"Point","coordinates":[137.7393,34.72866]},"id":"EM844390301,NAVTEQ"},{"type":"Feature","properties":{"name":"CHIKUSA-KU","parent":"22928357,NAVTEQ","officialNames":{"en":"CHIKUSA-KU"}},"geometry":{"type":"Point","coordinates":[136.94957,35.13505]},"id":"EM844422762,NAVTEQ"},{"type":"Feature","properties":{"name":"HIGASHIHIROSHIMA-SHI","parent":"22928357,NAVTEQ","officialNames":{"en":"HIGASHIHIROSHIMA-SHI"}},"geometry":{"type":"Point","coordinates":[132.70915,34.43127]},"id":"EM844421120,NAVTEQ"},{"type":"Feature","properties":{"name":"TODA-SHI","parent":"22928357,NAVTEQ","officialNames":{"en":"TODA-SHI"}},"geometry":{"type":"Point","coordinates":[139.68611,35.79973]},"id":"EM844386427,NAVTEQ"},{"type":"Feature","properties":{"name":"KASUGA-SHI","parent":"22928357,NAVTEQ","officialNames":{"en":"KASUGA-SHI"}},"geometry":{"type":"Point","coordinates":[130.42896,33.53055]},"id":"EM844433984,NAVTEQ"},{"type":"Feature","properties":{"name":"OSAKA-FU","parent":"22928357,NAVTEQ","officialNames":{"en":"OSAKA-FU"}},"geometry":{"type":"Point","coordinates":[135.5016,34.68714]},"id":"EM844430077,NAVTEQ"},{"type":"Feature","properties":{"name":"KARIYA-SHI","parent":"22928357,NAVTEQ","officialNames":{"en":"KARIYA-SHI"}},"geometry":{"type":"Point","coordinates":[136.9946,34.98358]},"id":"EM844393279,NAVTEQ"},{"type":"Feature","properties":{"name":"KAWASAKI-SHI","parent":"22928357,NAVTEQ","officialNames":{"en":"KAWASAKI-SHI"}},"geometry":{"type":"Point","coordinates":[139.8201,35.66771]},"id":"EM844420943,NAVTEQ"},{"type":"Feature","properties":{"name":"MACHIDA-SHI","parent":"22928357,NAVTEQ","officialNames":{"en":"MACHIDA-SHI"}},"geometry":{"type":"Point","coordinates":[139.49691,35.60028]},"id":"EM844414055,NAVTEQ"},{"type":"Feature","properties":{"name":"MAEBASHI-SHI","parent":"22928357,NAVTEQ","officialNames":{"en":"MAEBASHI-SHI"}},"geometry":{"type":"Point","coordinates":[139.06921,36.39632]},"id":"EM844389838,NAVTEQ"},{"type":"Feature","properties":{"name":"HANDA-SHI","parent":"22928357,NAVTEQ","officialNames":{"en":"HANDA-SHI"}},"geometry":{"type":"Point","coordinates":[136.93495,34.89713]},"id":"EM844430737,NAVTEQ"},{"type":"Feature","properties":{"name":"ITABASHI","parent":"22928357,NAVTEQ","officialNames":{"en":"ITABASHI"}},"geometry":{"type":"Point","coordinates":[139.72206,35.75583]},"id":"EM844443647,NAVTEQ"},{"type":"Feature","properties":{"name":"IWATSUKI-SHI","parent":"22928357,NAVTEQ","officialNames":{"en":"IWATSUKI-SHI"}},"geometry":{"type":"Point","coordinates":[139.70553,35.95641]},"id":"EM844433457,NAVTEQ"},{"type":"Feature","properties":{"name":"NAGOYA","parent":"22928357,NAVTEQ","officialNames":{"en":"NAGOYA"}},"geometry":{"type":"Point","coordinates":[129.91124,33.5063]},"id":"EM844400937,NAVTEQ"},{"type":"Feature","properties":{"name":"YOKOHAMA-SHI","parent":"22928357,NAVTEQ","officialNames":{"en":"YOKOHAMA-SHI"}},"geometry":{"type":"Point","coordinates":[139.62138,35.39938]},"id":"EM844422956,NAVTEQ"},{"type":"Feature","properties":{"name":"SAIWAI-KU","parent":"22928357,NAVTEQ","officialNames":{"en":"SAIWAI-KU"}},"geometry":{"type":"Point","coordinates":[139.8201,35.66771]},"id":"EM844394107,NAVTEQ"},{"type":"Feature","properties":{"name":"UTSUNOMIYA-SHI","parent":"22928357,NAVTEQ","officialNames":{"en":"UTSUNOMIYA-SHI"}},"geometry":{"type":"Point","coordinates":[139.89831,36.55556]},"id":"EM844410061,NAVTEQ"},{"type":"Feature","properties":{"name":"KURUME-SHI","parent":"22928357,NAVTEQ","officialNames":{"en":"KURUME-SHI"}},"geometry":{"type":"Point","coordinates":[130.51561,33.30245]},"id":"EM844395484,NAVTEQ"},{"type":"Feature","properties":{"name":"FUKUYAMA-SHI","parent":"22928357,NAVTEQ","officialNames":{"en":"FUKUYAMA-SHI"}},"geometry":{"type":"Point","coordinates":[133.37381,34.4836]},"id":"EM844427365,NAVTEQ"},{"type":"Feature","properties":{"name":"NARASHINO-SHI","parent":"22928357,NAVTEQ","officialNames":{"en":"NARASHINO-SHI"}},"geometry":{"type":"Point","coordinates":[140.04735,35.6969]},"id":"EM844392982,NAVTEQ"},{"type":"Feature","properties":{"name":"SANDA-SHI","parent":"22928357,NAVTEQ","officialNames":{"en":"SANDA-SHI"}},"geometry":{"type":"Point","coordinates":[135.2302,34.88567]},"id":"EM844389242,NAVTEQ"},{"type":"Feature","properties":{"name":"KURASHIKI-SHI","parent":"22928357,NAVTEQ","officialNames":{"en":"KURASHIKI-SHI"}},"geometry":{"type":"Point","coordinates":[133.76767,34.6026]},"id":"EM844426376,NAVTEQ"},{"type":"Feature","properties":{"name":"KOMATSU-SHI","parent":"22928357,NAVTEQ","officialNames":{"en":"KOMATSU-SHI"}},"geometry":{"type":"Point","coordinates":[136.44396,36.3949]},"id":"EM844389567,NAVTEQ"},{"type":"Feature","properties":{"name":"YAMAGUCHI","parent":"22928357,NAVTEQ","officialNames":{"en":"YAMAGUCHI"}},"geometry":{"type":"Point","coordinates":[139.45798,37.3085]},"id":"EM844399165,NAVTEQ"},{"type":"Feature","properties":{"name":"TOKOROZAWA-SHI","parent":"22928357,NAVTEQ","officialNames":{"en":"TOKOROZAWA-SHI"}},"geometry":{"type":"Point","coordinates":[139.46187,35.802]},"id":"EM844417536,NAVTEQ"},{"type":"Feature","properties":{"name":"TOYAMA-SHI","parent":"22928357,NAVTEQ","officialNames":{"en":"TOYAMA-SHI"}},"geometry":{"type":"Point","coordinates":[137.22406,36.69903]},"id":"EM844390475,NAVTEQ"},{"type":"Feature","properties":{"name":"OTSU-SHI","parent":"22928357,NAVTEQ","officialNames":{"en":"OTSU-SHI"}},"geometry":{"type":"Point","coordinates":[135.89463,34.99414]},"id":"EM844410710,NAVTEQ"},{"type":"Feature","properties":{"name":"NAGANO","parent":"22928357,NAVTEQ","officialNames":{"en":"NAGANO"}},"geometry":{"type":"Point","coordinates":[135.75753,34.4488]},"id":"EM844402651,NAVTEQ"},{"type":"Feature","properties":{"name":"TOYOTA","parent":"22928357,NAVTEQ","officialNames":{"en":"TOYOTA"}},"geometry":{"type":"Point","coordinates":[131.05226,34.1654]},"id":"EM844401673,NAVTEQ"},{"type":"Feature","properties":{"name":"YONO-SHI","parent":"22928357,NAVTEQ","officialNames":{"en":"YONO-SHI"}},"geometry":{"type":"Point","coordinates":[139.64562,35.85397]},"id":"EM844445245,NAVTEQ"},{"type":"Feature","properties":{"name":"UEDA","parent":"22928357,NAVTEQ","officialNames":{"en":"UEDA"}},"geometry":{"type":"Point","coordinates":[140.77397,36.89263]},"id":"EM844436576,NAVTEQ"},{"type":"Feature","properties":{"name":"NARA-SHI","parent":"22928357,NAVTEQ","officialNames":{"en":"NARA-SHI"}},"geometry":{"type":"Point","coordinates":[135.8333,34.67581]},"id":"EM844407737,NAVTEQ"},{"type":"Feature","properties":{"name":"MATSUYAMA","parent":"22928357,NAVTEQ","officialNames":{"en":"MATSUYAMA"}},"geometry":{"type":"Point","coordinates":[139.40797,36.04276]},"id":"EM844406488,NAVTEQ"},{"type":"Feature","properties":{"name":"KAWASAKI-KU","parent":"22928357,NAVTEQ","officialNames":{"en":"KAWASAKI-KU"}},"geometry":{"type":"Point","coordinates":[139.72058,35.5251]},"id":"EM844388184,NAVTEQ"},{"type":"Feature","properties":{"name":"TODA","parent":"22928357,NAVTEQ","officialNames":{"en":"TODA"}},"geometry":{"type":"Point","coordinates":[141.42756,40.13065]},"id":"EM844390578,NAVTEQ"},{"type":"Feature","properties":{"name":"KUSATSU","parent":"22928357,NAVTEQ","officialNames":{"en":"KUSATSU"}},"geometry":{"type":"Point","coordinates":[138.56845,36.6277]},"id":"EM844389427,NAVTEQ"},{"type":"Feature","properties":{"name":"ITABASHIMACHI","parent":"22928357,NAVTEQ","officialNames":{"en":"ITABASHIMACHI"}},"geometry":{"type":"Point","coordinates":[139.72206,35.75583]},"id":"EM844433951,NAVTEQ"},{"type":"Feature","properties":{"name":"IKUNO-KU","parent":"22928357,NAVTEQ","officialNames":{"en":"IKUNO-KU"}},"geometry":{"type":"Point","coordinates":[135.55011,34.63301]},"id":"EM844392975,NAVTEQ"},{"type":"Feature","properties":{"name":"KOJIMA-AJINO","parent":"22928357,NAVTEQ","officialNames":{"en":"KOJIMA-AJINO"}},"geometry":{"type":"Point","coordinates":[133.80294,34.46409]},"id":"EM844402785,NAVTEQ"},{"type":"Feature","properties":{"name":"UBE","parent":"22928357,NAVTEQ","officialNames":{"en":"UBE"}},"geometry":{"type":"Point","coordinates":[141.70629,40.11708]},"id":"EM844396483,NAVTEQ"},{"type":"Feature","properties":{"name":"SAGA","parent":"22928357,NAVTEQ","officialNames":{"en":"SAGA"}},"geometry":{"type":"Point","coordinates":[133.10979,33.10155]},"id":"EM844414561,NAVTEQ"},{"type":"Feature","properties":{"name":"KOKUBUNJI-SHI","parent":"22928357,NAVTEQ","officialNames":{"en":"KOKUBUNJI-SHI"}},"geometry":{"type":"Point","coordinates":[139.49356,35.68202]},"id":"EM844410325,NAVTEQ"},{"type":"Feature","properties":{"name":"TOYOHIRA-KU","parent":"22928357,NAVTEQ","officialNames":{"en":"TOYOHIRA-KU"}},"geometry":{"type":"Point","coordinates":[141.36155,43.04982]},"id":"EM844415572,NAVTEQ"},{"type":"Feature","properties":{"name":"KANAZAWA","parent":"22928357,NAVTEQ","officialNames":{"en":"KANAZAWA"}},"geometry":{"type":"Point","coordinates":[139.62138,35.39938]},"id":"EM844435859,NAVTEQ"},{"type":"Feature","properties":{"name":"HAKUSAN","parent":"22928357,NAVTEQ","officialNames":{"en":"HAKUSAN"}},"geometry":{"type":"Point","coordinates":[136.4372,34.66551]},"id":"EM844437584,NAVTEQ"},{"type":"Feature","properties":{"name":"TAKATSUKI-SHI","parent":"22928357,NAVTEQ","officialNames":{"en":"TAKATSUKI-SHI"}},"geometry":{"type":"Point","coordinates":[135.63024,34.8453]},"id":"EM844413462,NAVTEQ"},{"type":"Feature","properties":{"name":"HAKATA-KU","parent":"22928357,NAVTEQ","officialNames":{"en":"HAKATA-KU"}},"geometry":{"type":"Point","coordinates":[130.41286,33.5953]},"id":"EM844388967,NAVTEQ"},{"type":"Feature","properties":{"name":"ICHINOMIYA","parent":"22928357,NAVTEQ","officialNames":{"en":"ICHINOMIYA"}},"geometry":{"type":"Point","coordinates":[138.83349,36.24226]},"id":"EM844393457,NAVTEQ"},{"type":"Feature","properties":{"name":"TARUMI-KU","parent":"22928357,NAVTEQ","officialNames":{"en":"TARUMI-KU"}},"geometry":{"type":"Point","coordinates":[135.06681,34.65183]},"id":"EM844428882,NAVTEQ"},{"type":"Feature","properties":{"name":"FUJINOMIYA-SHI","parent":"22928357,NAVTEQ","officialNames":{"en":"FUJINOMIYA-SHI"}},"geometry":{"type":"Point","coordinates":[138.58617,35.19336]},"id":"EM844420556,NAVTEQ"},{"type":"Feature","properties":{"name":"NAGASAKI-SHI","parent":"22928357,NAVTEQ","officialNames":{"en":"NAGASAKI-SHI"}},"geometry":{"type":"Point","coordinates":[129.86654,32.76033]},"id":"EM844401285,NAVTEQ"},{"type":"Feature","properties":{"name":"TAMA-SHI","parent":"22928357,NAVTEQ","officialNames":{"en":"TAMA-SHI"}},"geometry":{"type":"Point","coordinates":[139.47297,35.621]},"id":"EM844400529,NAVTEQ"},{"type":"Feature","properties":{"name":"EBETSU-SHI","parent":"22928357,NAVTEQ","officialNames":{"en":"EBETSU-SHI"}},"geometry":{"type":"Point","coordinates":[141.55302,43.10775]},"id":"EM844407314,NAVTEQ"},{"type":"Feature","properties":{"name":"TOTTORI-SHI","parent":"22928357,NAVTEQ","officialNames":{"en":"TOTTORI-SHI"}},"geometry":{"type":"Point","coordinates":[134.23528,35.49586]},"id":"EM844398863,NAVTEQ"},{"type":"Feature","properties":{"name":"KAWACHINAGANO-SHI","parent":"22928357,NAVTEQ","officialNames":{"en":"KAWACHINAGANO-SHI"}},"geometry":{"type":"Point","coordinates":[135.60527,34.39299]},"id":"EM844427600,NAVTEQ"},{"type":"Feature","properties":{"name":"ISESAKI-SHI","parent":"22928357,NAVTEQ","officialNames":{"en":"ISESAKI-SHI"}},"geometry":{"type":"Point","coordinates":[139.2079,36.31984]},"id":"EM844388176,NAVTEQ"},{"type":"Feature","properties":{"name":"TSUCHIURA-SHI","parent":"22928357,NAVTEQ","officialNames":{"en":"TSUCHIURA-SHI"}},"geometry":{"type":"Point","coordinates":[140.20321,36.06771]},"id":"EM844446459,NAVTEQ"},{"type":"Feature","properties":{"name":"KISARAZU-SHI","parent":"22928357,NAVTEQ","officialNames":{"en":"KISARAZU-SHI"}},"geometry":{"type":"Point","coordinates":[139.93128,35.3793]},"id":"EM844433163,NAVTEQ"},{"type":"Feature","properties":{"name":"TOCHIGI-SHI","parent":"22928357,NAVTEQ","officialNames":{"en":"TOCHIGI-SHI"}},"geometry":{"type":"Point","coordinates":[139.83023,36.43001]},"id":"EM844436659,NAVTEQ"},{"type":"Feature","properties":{"name":"NAGAOKA","parent":"22928357,NAVTEQ","officialNames":{"en":"NAGAOKA"}},"geometry":{"type":"Point","coordinates":[138.9447,35.04416]},"id":"EM844399972,NAVTEQ"},{"type":"Feature","properties":{"name":"SUMIYOSHI-KU","parent":"22928357,NAVTEQ","officialNames":{"en":"SUMIYOSHI-KU"}},"geometry":{"type":"Point","coordinates":[135.49464,34.61029]},"id":"EM844399973,NAVTEQ"},{"type":"Feature","properties":{"name":"KURE","parent":"22928357,NAVTEQ","officialNames":{"en":"KURE"}},"geometry":{"type":"Point","coordinates":[133.25099,33.35889]},"id":"EM844433062,NAVTEQ"},{"type":"Feature","properties":{"name":"AMAGASAKI-SHI","parent":"22928357,NAVTEQ","officialNames":{"en":"AMAGASAKI-SHI"}},"geometry":{"type":"Point","coordinates":[135.41689,34.71848]},"id":"EM844403194,NAVTEQ"},{"type":"Feature","properties":{"name":"TOKAI","parent":"22928357,NAVTEQ","officialNames":{"en":"TOKAI"}},"geometry":{"type":"Point","coordinates":[140.59253,36.44625]},"id":"EM844413337,NAVTEQ"},{"type":"Feature","properties":{"name":"SUITA-SHI","parent":"22928357,NAVTEQ","officialNames":{"en":"SUITA-SHI"}},"geometry":{"type":"Point","coordinates":[135.68416,34.77306]},"id":"EM844411190,NAVTEQ"},{"type":"Feature","properties":{"name":"KOFU","parent":"22928357,NAVTEQ","officialNames":{"en":"KOFU"}},"geometry":{"type":"Point","coordinates":[133.45097,35.33375]},"id":"EM844400918,NAVTEQ"},{"type":"Feature","properties":{"name":"SAKAI-SHI","parent":"22928357,NAVTEQ","officialNames":{"en":"SAKAI-SHI"}},"geometry":{"type":"Point","coordinates":[135.46629,34.55381]},"id":"EM844442467,NAVTEQ"},{"type":"Feature","properties":{"name":"IIDA-SHI","parent":"22928357,NAVTEQ","officialNames":{"en":"IIDA-SHI"}},"geometry":{"type":"Point","coordinates":[137.82611,35.51611]},"id":"EM844426835,NAVTEQ"},{"type":"Feature","properties":{"name":"WAKAYAMA-SHI","parent":"22928357,NAVTEQ","officialNames":{"en":"WAKAYAMA-SHI"}},"geometry":{"type":"Point","coordinates":[135.17597,34.21327]},"id":"EM844385665,NAVTEQ"},{"type":"Feature","properties":{"name":"FUKUYAMA","parent":"22928357,NAVTEQ","officialNames":{"en":"FUKUYAMA"}},"geometry":{"type":"Point","coordinates":[130.79919,31.59844]},"id":"EM844428549,NAVTEQ"},{"type":"Feature","properties":{"name":"NOBEOKA-SHI","parent":"22928357,NAVTEQ","officialNames":{"en":"NOBEOKA-SHI"}},"geometry":{"type":"Point","coordinates":[131.67919,32.56601]},"id":"EM844439949,NAVTEQ"},{"type":"Feature","properties":{"name":"ATSUTA-KU","parent":"22928357,NAVTEQ","officialNames":{"en":"ATSUTA-KU"}},"geometry":{"type":"Point","coordinates":[136.91845,35.11403]},"id":"EM844429279,NAVTEQ"},{"type":"Feature","properties":{"name":"HOFU-SHI","parent":"22928357,NAVTEQ","officialNames":{"en":"HOFU-SHI"}},"geometry":{"type":"Point","coordinates":[131.62945,34.05095]},"id":"EM844442168,NAVTEQ"},{"type":"Feature","properties":{"name":"FUCHU-SHI","parent":"22928357,NAVTEQ","officialNames":{"en":"FUCHU-SHI"}},"geometry":{"type":"Point","coordinates":[139.49101,35.65949]},"id":"EM844420022,NAVTEQ"},{"type":"Feature","properties":{"name":"ANJO-SHI","parent":"22928357,NAVTEQ","officialNames":{"en":"ANJO-SHI"}},"geometry":{"type":"Point","coordinates":[137.09326,34.96291]},"id":"EM844442998,NAVTEQ"},{"type":"Feature","properties":{"name":"MIDORI-KU","parent":"22928357,NAVTEQ","officialNames":{"en":"MIDORI-KU"}},"geometry":{"type":"Point","coordinates":[136.97937,35.07491]},"id":"EM844443522,NAVTEQ"},{"type":"Feature","properties":{"name":"NISHINARI-KU","parent":"22928357,NAVTEQ","officialNames":{"en":"NISHINARI-KU"}},"geometry":{"type":"Point","coordinates":[135.49464,34.61029]},"id":"EM844412576,NAVTEQ"},{"type":"Feature","properties":{"name":"AKISHIMA-SHI","parent":"22928357,NAVTEQ","officialNames":{"en":"AKISHIMA-SHI"}},"geometry":{"type":"Point","coordinates":[139.31793,35.70549]},"id":"EM844426315,NAVTEQ"},{"type":"Feature","properties":{"name":"YOKKAICHI","parent":"22928357,NAVTEQ","officialNames":{"en":"YOKKAICHI"}},"geometry":{"type":"Point","coordinates":[131.33237,33.52751]},"id":"EM844388567,NAVTEQ"},{"type":"Feature","properties":{"name":"HIROSAKI-SHI","parent":"22928357,NAVTEQ","officialNames":{"en":"HIROSAKI-SHI"}},"geometry":{"type":"Point","coordinates":[140.47668,40.59815]},"id":"EM844436446,NAVTEQ"},{"type":"Feature","properties":{"name":"NAGOYA-SHI","parent":"22928357,NAVTEQ","officialNames":{"en":"NAGOYA-SHI"}},"geometry":{"type":"Point","coordinates":[136.91903,35.15065]},"id":"EM844429682,NAVTEQ"},{"type":"Feature","properties":{"name":"KURE-SHI","parent":"22928357,NAVTEQ","officialNames":{"en":"KURE-SHI"}},"geometry":{"type":"Point","coordinates":[132.56052,34.22825]},"id":"EM844388909,NAVTEQ"},{"type":"Feature","properties":{"name":"HIGASHIMURAYAMA-SHI","parent":"22928357,NAVTEQ","officialNames":{"en":"HIGASHIMURAYAMA-SHI"}},"geometry":{"type":"Point","coordinates":[139.53624,35.72067]},"id":"EM844446905,NAVTEQ"},{"type":"Feature","properties":{"name":"KYOTO-FU","parent":"22928357,NAVTEQ","officialNames":{"en":"KYOTO-FU"}},"geometry":{"type":"Point","coordinates":[135.75236,35.00026]},"id":"EM844444082,NAVTEQ"},{"type":"Feature","properties":{"name":"NIIHAMA-SHI","parent":"22928357,NAVTEQ","officialNames":{"en":"NIIHAMA-SHI"}},"geometry":{"type":"Point","coordinates":[133.2883,33.96523]},"id":"EM844400407,NAVTEQ"},{"type":"Feature","properties":{"name":"MIYAKOJIMA-KU","parent":"22928357,NAVTEQ","officialNames":{"en":"MIYAKOJIMA-KU"}},"geometry":{"type":"Point","coordinates":[135.55163,34.71607]},"id":"EM844396869,NAVTEQ"},{"type":"Feature","properties":{"name":"CHUO","parent":"22928357,NAVTEQ","officialNames":{"en":"CHUO"}},"geometry":{"type":"Point","coordinates":[141.97165,44.55822]},"id":"EM844434401,NAVTEQ"},{"type":"Feature","properties":{"name":"HABIKINO-SHI","parent":"22928357,NAVTEQ","officialNames":{"en":"HABIKINO-SHI"}},"geometry":{"type":"Point","coordinates":[135.57535,34.53602]},"id":"EM844435466,NAVTEQ"},{"type":"Feature","properties":{"name":"HIGASHIYODOGAWA-KU","parent":"22928357,NAVTEQ","officialNames":{"en":"HIGASHIYODOGAWA-KU"}},"geometry":{"type":"Point","coordinates":[135.56026,34.75784]},"id":"EM844421680,NAVTEQ"},{"type":"Feature","properties":{"name":"YAMATO-MINAMI","parent":"22928357,NAVTEQ","officialNames":{"en":"YAMATO-MINAMI"}},"geometry":{"type":"Point","coordinates":[139.46456,35.46718]},"id":"EM844392913,NAVTEQ"},{"type":"Feature","properties":{"name":"KONOHANA-KU","parent":"22928357,NAVTEQ","officialNames":{"en":"KONOHANA-KU"}},"geometry":{"type":"Point","coordinates":[135.47751,34.66456]},"id":"EM844394765,NAVTEQ"},{"type":"Feature","properties":{"name":"OITA-SHI","parent":"22928357,NAVTEQ","officialNames":{"en":"OITA-SHI"}},"geometry":{"type":"Point","coordinates":[131.6164,33.23151]},"id":"EM844395899,NAVTEQ"},{"type":"Feature","properties":{"name":"TAITO-KU","parent":"22928357,NAVTEQ","officialNames":{"en":"TAITO-KU"}},"geometry":{"type":"Point","coordinates":[139.78383,35.7061]},"id":"EM844391260,NAVTEQ"},{"type":"Feature","properties":{"name":"FUNABASHI-SHI","parent":"22928357,NAVTEQ","officialNames":{"en":"FUNABASHI-SHI"}},"geometry":{"type":"Point","coordinates":[139.9955,35.69627]},"id":"EM844406966,NAVTEQ"},{"type":"Feature","properties":{"name":"IRUMAGAWA","parent":"22928357,NAVTEQ","officialNames":{"en":"IRUMAGAWA"}},"geometry":{"type":"Point","coordinates":[139.39934,35.85212]},"id":"EM844416603,NAVTEQ"},{"type":"Feature","properties":{"name":"MATSUYAMA-SHI","parent":"22928357,NAVTEQ","officialNames":{"en":"MATSUYAMA-SHI"}},"geometry":{"type":"Point","coordinates":[132.77897,33.8336]},"id":"EM844436303,NAVTEQ"},{"type":"Feature","properties":{"name":"MATSUSAKA-SHI","parent":"22928357,NAVTEQ","officialNames":{"en":"MATSUSAKA-SHI"}},"geometry":{"type":"Point","coordinates":[136.5434,34.57347]},"id":"EM844400907,NAVTEQ"},{"type":"Feature","properties":{"name":"EDOGAWA-KU","parent":"22928357,NAVTEQ","officialNames":{"en":"EDOGAWA-KU"}},"geometry":{"type":"Point","coordinates":[139.88999,35.69164]},"id":"EM844426006,NAVTEQ"},{"type":"Feature","properties":{"name":"IMABARI-SHI","parent":"22928357,NAVTEQ","officialNames":{"en":"IMABARI-SHI"}},"geometry":{"type":"Point","coordinates":[133.00571,34.05822]},"id":"EM844440225,NAVTEQ"},{"type":"Feature","properties":{"name":"KAWAGUCHI-SHI","parent":"22928357,NAVTEQ","officialNames":{"en":"KAWAGUCHI-SHI"}},"geometry":{"type":"Point","coordinates":[139.73478,35.82839]},"id":"EM844420633,NAVTEQ"},{"type":"Feature","properties":{"name":"SUMIDA-KU","parent":"22928357,NAVTEQ","officialNames":{"en":"SUMIDA-KU"}},"geometry":{"type":"Point","coordinates":[139.81406,35.74278]},"id":"EM844409657,NAVTEQ"},{"type":"Feature","properties":{"name":"HIGASHIOSAKA-SHI","parent":"22928357,NAVTEQ","officialNames":{"en":"HIGASHIOSAKA-SHI"}},"geometry":{"type":"Point","coordinates":[135.64453,34.64451]},"id":"EM844439313,NAVTEQ"},{"type":"Feature","properties":{"name":"HITACHINAKA-SHI","parent":"22928357,NAVTEQ","officialNames":{"en":"HITACHINAKA-SHI"}},"geometry":{"type":"Point","coordinates":[140.51247,36.38449]},"id":"EM844419877,NAVTEQ"},{"type":"Feature","properties":{"name":"KISHIWADA-SHI","parent":"22928357,NAVTEQ","officialNames":{"en":"KISHIWADA-SHI"}},"geometry":{"type":"Point","coordinates":[135.42317,34.47421]},"id":"EM844410864,NAVTEQ"},{"type":"Feature","properties":{"name":"IZUMI-SHI","parent":"22928357,NAVTEQ","officialNames":{"en":"IZUMI-SHI"}},"geometry":{"type":"Point","coordinates":[130.36043,32.07727]},"id":"EM844396661,NAVTEQ"},{"type":"Feature","properties":{"name":"HINO-SHI","parent":"22928357,NAVTEQ","officialNames":{"en":"HINO-SHI"}},"geometry":{"type":"Point","coordinates":[139.40951,35.67976]},"id":"EM844388154,NAVTEQ"},{"type":"Feature","properties":{"name":"ARAKAWA-KU","parent":"22928357,NAVTEQ","officialNames":{"en":"ARAKAWA-KU"}},"geometry":{"type":"Point","coordinates":[139.80791,35.74581]},"id":"EM844405184,NAVTEQ"},{"type":"Feature","properties":{"name":"MAEHARA","parent":"22928357,NAVTEQ","officialNames":{"en":"MAEHARA"}},"geometry":{"type":"Point","coordinates":[127.86224,26.33801]},"id":"EM844399626,NAVTEQ"},{"type":"Feature","properties":{"name":"MISHIMA-SHI","parent":"22928357,NAVTEQ","officialNames":{"en":"MISHIMA-SHI"}},"geometry":{"type":"Point","coordinates":[138.92131,35.11114]},"id":"EM844407175,NAVTEQ"},{"type":"Feature","properties":{"name":"OKAZAKI-SHI","parent":"22928357,NAVTEQ","officialNames":{"en":"OKAZAKI-SHI"}},"geometry":{"type":"Point","coordinates":[137.16318,34.94767]},"id":"EM844433947,NAVTEQ"},{"type":"Feature","properties":{"name":"SHIBUYA-KU","parent":"22928357,NAVTEQ","officialNames":{"en":"SHIBUYA-KU"}},"geometry":{"type":"Point","coordinates":[139.65872,35.68877]},"id":"EM844442178,NAVTEQ"},{"type":"Feature","properties":{"name":"OBIHIRO-SHI","parent":"22928357,NAVTEQ","officialNames":{"en":"OBIHIRO-SHI"}},"geometry":{"type":"Point","coordinates":[143.19917,42.93264]},"id":"EM844402954,NAVTEQ"},{"type":"Feature","properties":{"name":"NAGANO-SHI","parent":"22928357,NAVTEQ","officialNames":{"en":"NAGANO-SHI"}},"geometry":{"type":"Point","coordinates":[138.19122,36.64851]},"id":"EM844439835,NAVTEQ"},{"type":"Feature","properties":{"name":"NAGAOKA-SHI","parent":"22928357,NAVTEQ","officialNames":{"en":"NAGAOKA-SHI"}},"geometry":{"type":"Point","coordinates":[138.85103,37.45029]},"id":"EM844391485,NAVTEQ"},{"type":"Feature","properties":{"name":"KATSUSHIKA-KU","parent":"22928357,NAVTEQ","officialNames":{"en":"KATSUSHIKA-KU"}},"geometry":{"type":"Point","coordinates":[139.85327,35.75401]},"id":"EM844435475,NAVTEQ"},{"type":"Feature","properties":{"name":"HIGASHI-KU","parent":"22928357,NAVTEQ","officialNames":{"en":"HIGASHI-KU"}},"geometry":{"type":"Point","coordinates":[136.91903,35.15065]},"id":"EM844440115,NAVTEQ"},{"type":"Feature","properties":{"name":"YOSHIWARA-SHI","parent":"22928357,NAVTEQ","officialNames":{"en":"YOSHIWARA-SHI"}},"geometry":{"type":"Point","coordinates":[138.73082,35.15411]},"id":"EM844387143,NAVTEQ"},{"type":"Feature","properties":{"name":"HIKONE-SHI","parent":"22928357,NAVTEQ","officialNames":{"en":"HIKONE-SHI"}},"geometry":{"type":"Point","coordinates":[136.24754,35.26903]},"id":"EM844399750,NAVTEQ"},{"type":"Feature","properties":{"name":"OYAMA-SHI","parent":"22928357,NAVTEQ","officialNames":{"en":"OYAMA-SHI"}},"geometry":{"type":"Point","coordinates":[139.8038,36.3201]},"id":"EM844402174,NAVTEQ"},{"type":"Feature","properties":{"name":"MATSUBARA","parent":"22928357,NAVTEQ","officialNames":{"en":"MATSUBARA"}},"geometry":{"type":"Point","coordinates":[131.66328,33.59321]},"id":"EM844441706,NAVTEQ"},{"type":"Feature","properties":{"name":"OKOSHI","parent":"22928357,NAVTEQ","officialNames":{"en":"OKOSHI"}},"geometry":{"type":"Point","coordinates":[136.69025,35.27201]},"id":"EM844428528,NAVTEQ"},{"type":"Feature","properties":{"name":"KAGOSHIMA-SHI","parent":"22928357,NAVTEQ","officialNames":{"en":"KAGOSHIMA-SHI"}},"geometry":{"type":"Point","coordinates":[130.5571,31.56431]},"id":"EM844417388,NAVTEQ"},{"type":"Feature","properties":{"name":"YONAGO-SHI","parent":"22928357,NAVTEQ","officialNames":{"en":"YONAGO-SHI"}},"geometry":{"type":"Point","coordinates":[133.34597,35.40853]},"id":"EM844433219,NAVTEQ"},{"type":"Feature","properties":{"name":"ICHINOMIYA-SHI","parent":"22928357,NAVTEQ","officialNames":{"en":"ICHINOMIYA-SHI"}},"geometry":{"type":"Point","coordinates":[136.82924,35.22985]},"id":"EM844439301,NAVTEQ"},{"type":"Feature","properties":{"name":"YATSUSHIRO-SHI","parent":"22928357,NAVTEQ","officialNames":{"en":"YATSUSHIRO-SHI"}},"geometry":{"type":"Point","coordinates":[130.62086,32.50572]},"id":"EM844428036,NAVTEQ"},{"type":"Feature","properties":{"name":"ISHINOMAKI-SHI","parent":"22928357,NAVTEQ","officialNames":{"en":"ISHINOMAKI-SHI"}},"geometry":{"type":"Point","coordinates":[141.30062,38.42876]},"id":"EM844385981,NAVTEQ"},{"type":"Feature","properties":{"name":"FUJI-SHI","parent":"22928357,NAVTEQ","officialNames":{"en":"FUJI-SHI"}},"geometry":{"type":"Point","coordinates":[138.69892,35.16164]},"id":"EM844405940,NAVTEQ"},{"type":"Feature","properties":{"name":"SUMIDA","parent":"22928357,NAVTEQ","officialNames":{"en":"SUMIDA"}},"geometry":{"type":"Point","coordinates":[139.81406,35.74278]},"id":"EM844420406,NAVTEQ"},{"type":"Feature","properties":{"name":"TAKATSUKI","parent":"22928357,NAVTEQ","officialNames":{"en":"TAKATSUKI"}},"geometry":{"type":"Point","coordinates":[136.2517,35.41509]},"id":"EM844410025,NAVTEQ"},{"type":"Feature","properties":{"name":"YAMATO-SHI","parent":"22928357,NAVTEQ","officialNames":{"en":"YAMATO-SHI"}},"geometry":{"type":"Point","coordinates":[139.46456,35.46718]},"id":"EM844405199,NAVTEQ"},{"type":"Feature","properties":{"name":"YAMAGATA-SHI","parent":"22928357,NAVTEQ","officialNames":{"en":"YAMAGATA-SHI"}},"geometry":{"type":"Point","coordinates":[140.33467,38.24994]},"id":"EM844399841,NAVTEQ"},{"type":"Feature","properties":{"name":"KOCHI-SHI","parent":"22928357,NAVTEQ","officialNames":{"en":"KOCHI-SHI"}},"geometry":{"type":"Point","coordinates":[133.54175,33.54845]},"id":"EM844386296,NAVTEQ"},{"type":"Feature","properties":{"name":"KASHIWA","parent":"22928357,NAVTEQ","officialNames":{"en":"KASHIWA"}},"geometry":{"type":"Point","coordinates":[132.51293,32.99557]},"id":"EM844428988,NAVTEQ"},{"type":"Feature","properties":{"name":"KANAZAWA-SHI","parent":"22928357,NAVTEQ","officialNames":{"en":"KANAZAWA-SHI"}},"geometry":{"type":"Point","coordinates":[136.63467,36.57247]},"id":"EM844427390,NAVTEQ"},{"type":"Feature","properties":{"name":"SENDAI-SHI","parent":"22928357,NAVTEQ","officialNames":{"en":"SENDAI-SHI"}},"geometry":{"type":"Point","coordinates":[140.8899,38.24891]},"id":"EM844407701,NAVTEQ"},{"type":"Feature","properties":{"name":"TAIHAKU-KU","parent":"22928357,NAVTEQ","officialNames":{"en":"TAIHAKU-KU"}},"geometry":{"type":"Point","coordinates":[140.4946,38.26992]},"id":"EM844386340,NAVTEQ"},{"type":"Feature","properties":{"name":"HIGASHISUMIYOSHI-KU","parent":"22928357,NAVTEQ","officialNames":{"en":"HIGASHISUMIYOSHI-KU"}},"geometry":{"type":"Point","coordinates":[135.49464,34.61029]},"id":"EM844385999,NAVTEQ"},{"type":"Feature","properties":{"name":"CHUO-KU","parent":"22928357,NAVTEQ","officialNames":{"en":"CHUO-KU"}},"geometry":{"type":"Point","coordinates":[135.22243,34.70388]},"id":"EM844440850,NAVTEQ"},{"type":"Feature","properties":{"name":"SETO","parent":"22928357,NAVTEQ","officialNames":{"en":"SETO"}},"geometry":{"type":"Point","coordinates":[129.72446,33.82465]},"id":"EM844405418,NAVTEQ"},{"type":"Feature","properties":{"name":"KITAMI-SHI","parent":"22928357,NAVTEQ","officialNames":{"en":"KITAMI-SHI"}},"geometry":{"type":"Point","coordinates":[143.89947,43.80487]},"id":"EM844412349,NAVTEQ"},{"type":"Feature","properties":{"name":"ITABASHICHO","parent":"22928357,NAVTEQ","officialNames":{"en":"ITABASHICHO"}},"geometry":{"type":"Point","coordinates":[139.72206,35.75583]},"id":"EM844413736,NAVTEQ"},{"type":"Feature","properties":{"name":"TOYOKAWA","parent":"22928357,NAVTEQ","officialNames":{"en":"TOYOKAWA"}},"geometry":{"type":"Point","coordinates":[143.97331,44.00709]},"id":"EM844422782,NAVTEQ"},{"type":"Feature","properties":{"name":"HIMEJI-SHI","parent":"22928357,NAVTEQ","officialNames":{"en":"HIMEJI-SHI"}},"geometry":{"type":"Point","coordinates":[134.70055,34.83624]},"id":"EM844439434,NAVTEQ"},{"type":"Feature","properties":{"name":"IKOMA-SHI","parent":"22928357,NAVTEQ","officialNames":{"en":"IKOMA-SHI"}},"geometry":{"type":"Point","coordinates":[135.67114,34.66117]},"id":"EM844395258,NAVTEQ"},{"type":"Feature","properties":{"name":"ODAWARA-SHI","parent":"22928357,NAVTEQ","officialNames":{"en":"ODAWARA-SHI"}},"geometry":{"type":"Point","coordinates":[139.16288,35.25345]},"id":"EM844385794,NAVTEQ"},{"type":"Feature","properties":{"name":"MITO-SHI","parent":"22928357,NAVTEQ","officialNames":{"en":"MITO-SHI"}},"geometry":{"type":"Point","coordinates":[140.47084,36.37161]},"id":"EM844388275,NAVTEQ"},{"type":"Feature","properties":{"name":"BUNKYO-KU","parent":"22928357,NAVTEQ","officialNames":{"en":"BUNKYO-KU"}},"geometry":{"type":"Point","coordinates":[139.7582,35.72228]},"id":"EM844439437,NAVTEQ"}]}