{"type":"FeatureCollection","features":[{"type":"Feature","properties":{"name":"Kampong Cham","parent":"23793506,NAVTEQ","officialNames":{"de":"Kompong Cham","fr":"Kampong Cham","en":"Kampong Cham","it":"Kampong Cham","es":"Kompung Cham","nl":"Kampong Cham"}},"geometry":{"type":"Point","coordinates":[105.45273,11.97751]},"id":"C23793540,NAVTEQ"},{"type":"Feature","properties":{"name":"Svay Rieng","parent":"23793549,NAVTEQ","officialNames":{"en":"Svay Rieng"}},"geometry":{"type":"Point","coordinates":[105.8012,11.08317]},"id":"C23793565,NAVTEQ"},{"type":"Feature","properties":{"name":"Takeo","parent":"23793548,NAVTEQ","officialNames":{"en":"Takeo"}},"geometry":{"type":"Point","coordinates":[104.77697,10.97674]},"id":"C23793563,NAVTEQ"},{"type":"Feature","properties":{"name":"Banteay Meanchey","parent":"23793541,NAVTEQ","officialNames":{"en":"Banteay Meanchey"}},"geometry":{"type":"Point","coordinates":[102.97229,13.59024]},"id":"C23793490,NAVTEQ"},{"type":"Feature","properties":{"name":"Pursat","parent":"23793479,NAVTEQ","officialNames":{"en":"Pursat"}},"geometry":{"type":"Point","coordinates":[103.91932,12.53312]},"id":"C23793523,NAVTEQ"},{"type":"Feature","properties":{"name":"Kampot","parent":"23793484,NAVTEQ","officialNames":{"en":"Kampot"}},"geometry":{"type":"Point","coordinates":[104.18509,10.60746]},"id":"C23793536,NAVTEQ"},{"type":"Feature","properties":{"name":"Kampong Thom","parent":"23793483,NAVTEQ","officialNames":{"en":"Kampong Thom"}},"geometry":{"type":"Point","coordinates":[104.89346,12.69922]},"id":"C23793518,NAVTEQ"},{"type":"Feature","properties":{"name":"Phnom Penh","parent":"23793476,NAVTEQ","officialNames":{"de":"Phnom Penh","fr":"Phnom Penh","en":"Phnom Penh","it":"Phnom Penh","es":"Phnom Penh","nl":"Phnom-Penh"}},"geometry":{"type":"Point","coordinates":[104.87691,11.55227]},"id":"C23793522,NAVTEQ"},{"type":"Feature","properties":{"name":"Siem Reap","parent":"23793481,NAVTEQ","officialNames":{"de":"Siem Reap","fr":"Siem Reap","en":"Siem Reap","it":"Siemreab","es":"Siemreab","nl":"Siem Reap"}},"geometry":{"type":"Point","coordinates":[103.86105,13.36119]},"id":"C23793525,NAVTEQ"},{"type":"Feature","properties":{"name":"Prey Veng","parent":"23793478,NAVTEQ","officialNames":{"en":"Prey Veng"}},"geometry":{"type":"Point","coordinates":[105.32964,11.48856]},"id":"C23793524,NAVTEQ"},{"type":"Feature","properties":{"name":"Kratie","parent":"23793488,NAVTEQ","officialNames":{"en":"Kratie"}},"geometry":{"type":"Point","coordinates":[106.02874,12.4571]},"id":"C23793514,NAVTEQ"},{"type":"Feature","properties":{"name":"Kandal","parent":"23793531,NAVTEQ","officialNames":{"en":"Kandal"}},"geometry":{"type":"Point","coordinates":[104.95244,11.47571]},"id":"C23793485,NAVTEQ"},{"type":"Feature","properties":{"name":"Kampong Chhnang","parent":"23793509,NAVTEQ","officialNames":{"en":"Kampong Chhnang"}},"geometry":{"type":"Point","coordinates":[104.67107,12.24465]},"id":"C23793539,NAVTEQ"},{"type":"Feature","properties":{"name":"Kampong Speu","parent":"23793482,NAVTEQ","officialNames":{"en":"Kampong Speu"}},"geometry":{"type":"Point","coordinates":[104.5105,11.47149]},"id":"C23793538,NAVTEQ"},{"type":"Feature","properties":{"name":"Battambang","parent":"23793507,NAVTEQ","officialNames":{"de":"Battambang","fr":"Baat Dambang","en":"Battambang","it":"Batdambang","es":"Batdambang","nl":"Battambang"}},"geometry":{"type":"Point","coordinates":[103.2136,13.09084]},"id":"C23793537,NAVTEQ"}]}