{"type":"FeatureCollection","features":[{"type":"Feature","properties":{"name":"Sabha","parent":"23750402,NAVTEQ","officialNames":{"ar":"سبها","en":"Sabha"}},"geometry":{"type":"Point","coordinates":[14.43795,27.02857]},"id":"C23775390,NAVTEQ"},{"type":"Feature","properties":{"name":"Al Bayda","parent":"23750420,NAVTEQ","officialNames":{"ar":"البيضا","en":"Al Bayda"}},"geometry":{"type":"Point","coordinates":[21.76764,32.76539]},"id":"C23775374,NAVTEQ"},{"type":"Feature","properties":{"name":"Tripoli","parent":"23750406,NAVTEQ","officialNames":{"de":"Tripolis","it":"Tripoli","fr":"Tripoli","ar":"طرابلس","en":"Tripoli","es":"Trípoli","nl":"Tripooli"}},"geometry":{"type":"Point","coordinates":[13.15886,32.86393]},"id":"C23775383,NAVTEQ"},{"type":"Feature","properties":{"name":"Darnah","parent":"23750413,NAVTEQ","officialNames":{"ar":"درنة‎","en":"Darnah"}},"geometry":{"type":"Point","coordinates":[22.65072,32.75993]},"id":"C23775380,NAVTEQ"},{"type":"Feature","properties":{"name":"Ajdabiya","parent":"23750419,NAVTEQ","officialNames":{"ar":"إجدابيا‎","en":"Ajdabiya"}},"geometry":{"type":"Point","coordinates":[20.22243,30.75836]},"id":"C23775361,NAVTEQ"},{"type":"Feature","properties":{"name":"Al Marj","parent":"23750421,NAVTEQ","officialNames":{"ar":"المرج","en":"Al Marj"}},"geometry":{"type":"Point","coordinates":[20.89427,32.50515]},"id":"C23775386,NAVTEQ"},{"type":"Feature","properties":{"name":"Zuwarah","parent":"23750403,NAVTEQ","officialNames":{"ar":"زوارة‎","en":"Zuwarah"}},"geometry":{"type":"Point","coordinates":[12.09105,32.92242]},"id":"C23775368,NAVTEQ"},{"type":"Feature","properties":{"name":"Surt","parent":"23750404,NAVTEQ","officialNames":{"ar":"سرت","en":"Surt"}},"geometry":{"type":"Point","coordinates":[16.57551,31.20606]},"id":"C23775387,NAVTEQ"},{"type":"Feature","properties":{"name":"Al Aziziyah","parent":"23750418,NAVTEQ","officialNames":{"de":"El Azizia","it":"El Azizia","fr":"El Azizia","ar":"العزيزيه","en":"Al Aziziyah","es":"El Aziziyah","nl":"Al Azizia"}},"geometry":{"type":"Point","coordinates":[13.02256,32.52943]},"id":"C23775389,NAVTEQ"},{"type":"Feature","properties":{"name":"Al Khums","parent":"23750422,NAVTEQ","officialNames":{"de":"Al Khums","it":"Homs","fr":"Al Khums","ar":"الخمس","en":"Al Khums","es":"Al Khums","nl":"Al Khums"}},"geometry":{"type":"Point","coordinates":[14.27156,32.64831]},"id":"C23775364,NAVTEQ"},{"type":"Feature","properties":{"name":"Tubruq","parent":"23750409,NAVTEQ","officialNames":{"ar":"طبرق‎","en":"Tubruq"}},"geometry":{"type":"Point","coordinates":[23.9565,32.08257]},"id":"C23775377,NAVTEQ"},{"type":"Feature","properties":{"name":"Az Zawiyah","parent":"23750410,NAVTEQ","officialNames":{"ar":"الزاوية","en":"Az Zawiyah"}},"geometry":{"type":"Point","coordinates":[12.72757,32.75129]},"id":"C23775366,NAVTEQ"},{"type":"Feature","properties":{"name":"Misratah","parent":"23750405,NAVTEQ","officialNames":{"de":"Misrata","it":"Misurata","fr":"Misrâtah","ar":"مصراتة","en":"Misratah","es":"Misurata","nl":"Misratah"}},"geometry":{"type":"Point","coordinates":[15.09513,32.38059]},"id":"C23775375,NAVTEQ"},{"type":"Feature","properties":{"name":"Benghazi","parent":"23750412,NAVTEQ","officialNames":{"de":"Bengasi","it":"Bengasi","fr":"Bengahzi","ar":"بنغازي","en":"Benghazi","es":"Begasi","nl":"Benghazi"}},"geometry":{"type":"Point","coordinates":[20.08271,32.1153]},"id":"C23775367,NAVTEQ"}]}