{"type":"FeatureCollection","features":[{"type":"Feature","properties":{"name":"DEHIWALA","parent":"22928342,NAVTEQ","officialNames":{"en":"DEHIWALA"}},"geometry":{"type":"Point","coordinates":[79.86647,6.85229]},"id":"EM844405529,NAVTEQ"},{"type":"Feature","properties":{"name":"COLOMBO","parent":"22928342,NAVTEQ","officialNames":{"en":"COLOMBO"}},"geometry":{"type":"Point","coordinates":[79.87188,6.92729]},"id":"EM844407658,NAVTEQ"},{"type":"Feature","properties":{"name":"JAFFNA","parent":"22928342,NAVTEQ","officialNames":{"en":"JAFFNA"}},"geometry":{"type":"Point","coordinates":[80.01334,9.66481]},"id":"EM844405292,NAVTEQ"},{"type":"Feature","properties":{"name":"NEGOMBO","parent":"22928342,NAVTEQ","officialNames":{"en":"NEGOMBO"}},"geometry":{"type":"Point","coordinates":[79.83698,7.20579]},"id":"EM844433272,NAVTEQ"},{"type":"Feature","properties":{"name":"KANDY","parent":"22928342,NAVTEQ","officialNames":{"en":"KANDY"}},"geometry":{"type":"Point","coordinates":[80.64095,7.28442]},"id":"EM844433709,NAVTEQ"},{"type":"Feature","properties":{"name":"SRI JAYEWARDENEPURA-KOTTE","parent":"22928342,NAVTEQ","officialNames":{"en":"SRI JAYEWARDENEPURA-KOTTE"}},"geometry":{"type":"Point","coordinates":[79.85767,6.89189]},"id":"EM844436844,NAVTEQ"},{"type":"Feature","properties":{"name":"MORATUWA","parent":"22928342,NAVTEQ","officialNames":{"en":"MORATUWA"}},"geometry":{"type":"Point","coordinates":[79.87777,6.7948]},"id":"EM844433647,NAVTEQ"}]}