{"type":"FeatureCollection","features":[{"type":"Feature","properties":{"name":"NAYPIDAW","parent":"22928301,NAVTEQ","officialNames":{"en":"NAYPIDAW"}},"geometry":{"type":"Point","coordinates":[96.19876,19.73399]},"id":"EM844430935,NAVTEQ"},{"type":"Feature","properties":{"name":"BASSEIN","parent":"22928301,NAVTEQ","officialNames":{"en":"BASSEIN"}},"geometry":{"type":"Point","coordinates":[94.76213,16.91517]},"id":"EM844422850,NAVTEQ"},{"type":"Feature","properties":{"name":"HENZADA","parent":"22928301,NAVTEQ","officialNames":{"en":"HENZADA"}},"geometry":{"type":"Point","coordinates":[95.47266,17.64212]},"id":"EM844428540,NAVTEQ"},{"type":"Feature","properties":{"name":"MYAUNGMYA","parent":"22928301,NAVTEQ","officialNames":{"en":"MYAUNGMYA"}},"geometry":{"type":"Point","coordinates":[94.80048,16.4974]},"id":"EM844393385,NAVTEQ"},{"type":"Feature","properties":{"name":"LASHIO","parent":"22928301,NAVTEQ","officialNames":{"en":"LASHIO"}},"geometry":{"type":"Point","coordinates":[97.75128,22.94395]},"id":"EM844444661,NAVTEQ"},{"type":"Feature","properties":{"name":"THAYETMYO","parent":"22928301,NAVTEQ","officialNames":{"en":"THAYETMYO"}},"geometry":{"type":"Point","coordinates":[95.18472,19.32989]},"id":"EM844437674,NAVTEQ"},{"type":"Feature","properties":{"name":"MONYWA","parent":"22928301,NAVTEQ","officialNames":{"en":"MONYWA"}},"geometry":{"type":"Point","coordinates":[95.14359,22.1074]},"id":"EM844414850,NAVTEQ"},{"type":"Feature","properties":{"name":"MYINGYAN","parent":"22928301,NAVTEQ","officialNames":{"en":"MYINGYAN"}},"geometry":{"type":"Point","coordinates":[95.38336,21.44281]},"id":"EM844392970,NAVTEQ"},{"type":"Feature","properties":{"name":"MERGUI","parent":"22928301,NAVTEQ","officialNames":{"en":"MERGUI"}},"geometry":{"type":"Point","coordinates":[98.61209,12.44616]},"id":"EM844395129,NAVTEQ"},{"type":"Feature","properties":{"name":"SITTWE","parent":"22928301,NAVTEQ","officialNames":{"en":"SITTWE"}},"geometry":{"type":"Point","coordinates":[92.88671,20.13819]},"id":"EM844411937,NAVTEQ"},{"type":"Feature","properties":{"name":"INSEIN","parent":"22928301,NAVTEQ","officialNames":{"en":"INSEIN"}},"geometry":{"type":"Point","coordinates":[96.0936,16.98676]},"id":"EM844396297,NAVTEQ"},{"type":"Feature","properties":{"name":"PEGU","parent":"22928301,NAVTEQ","officialNames":{"en":"PEGU"}},"geometry":{"type":"Point","coordinates":[96.49718,17.33324]},"id":"EM844387170,NAVTEQ"},{"type":"Feature","properties":{"name":"TAUNGGYI","parent":"22928301,NAVTEQ","officialNames":{"en":"TAUNGGYI"}},"geometry":{"type":"Point","coordinates":[97.01497,20.78811]},"id":"EM844445803,NAVTEQ"},{"type":"Feature","properties":{"name":"MOULMEIN","parent":"22928301,NAVTEQ","officialNames":{"en":"MOULMEIN"}},"geometry":{"type":"Point","coordinates":[97.63153,16.48627]},"id":"EM844408066,NAVTEQ"},{"type":"Feature","properties":{"name":"MEIKTILA","parent":"22928301,NAVTEQ","officialNames":{"en":"MEIKTILA"}},"geometry":{"type":"Point","coordinates":[95.85937,20.87122]},"id":"EM844391228,NAVTEQ"},{"type":"Feature","properties":{"name":"MANDALAY","parent":"22928301,NAVTEQ","officialNames":{"en":"MANDALAY"}},"geometry":{"type":"Point","coordinates":[96.06865,21.96721]},"id":"EM844435662,NAVTEQ"}]}