{"type":"FeatureCollection","features":[{"type":"Feature","properties":{"name":"KOHAT","parent":"22928320,NAVTEQ","officialNames":{"en":"KOHAT"}},"geometry":{"type":"Point","coordinates":[71.4453,33.59047]},"id":"EM844404089,NAVTEQ"},{"type":"Feature","properties":{"name":"JHANG CITY","parent":"22928320,NAVTEQ","officialNames":{"en":"JHANG CITY"}},"geometry":{"type":"Point","coordinates":[72.31646,31.27286]},"id":"EM844446463,NAVTEQ"},{"type":"Feature","properties":{"name":"RAHIMYAR KHAN","parent":"22928320,NAVTEQ","officialNames":{"en":"RAHIMYAR KHAN"}},"geometry":{"type":"Point","coordinates":[70.29763,28.41486]},"id":"EM844418224,NAVTEQ"},{"type":"Feature","properties":{"name":"PESHAWAR","parent":"22928320,NAVTEQ","officialNames":{"en":"PESHAWAR"}},"geometry":{"type":"Point","coordinates":[71.51704,34.00761]},"id":"EM844416750,NAVTEQ"},{"type":"Feature","properties":{"name":"KASUR","parent":"22928320,NAVTEQ","officialNames":{"en":"KASUR"}},"geometry":{"type":"Point","coordinates":[74.4468,31.1161]},"id":"EM844396306,NAVTEQ"},{"type":"Feature","properties":{"name":"KARACHI","parent":"22928320,NAVTEQ","officialNames":{"en":"KARACHI"}},"geometry":{"type":"Point","coordinates":[67.03437,24.92671]},"id":"EM844395983,NAVTEQ"},{"type":"Feature","properties":{"name":"KAMOKE","parent":"22928320,NAVTEQ","officialNames":{"en":"KAMOKE"}},"geometry":{"type":"Point","coordinates":[74.24216,31.85343]},"id":"EM844414665,NAVTEQ"},{"type":"Feature","properties":{"name":"MARDAN","parent":"22928320,NAVTEQ","officialNames":{"en":"MARDAN"}},"geometry":{"type":"Point","coordinates":[72.05159,34.19658]},"id":"EM844436617,NAVTEQ"},{"type":"Feature","properties":{"name":"JARANWALA","parent":"22928320,NAVTEQ","officialNames":{"en":"JARANWALA"}},"geometry":{"type":"Point","coordinates":[73.35971,31.4194]},"id":"EM844389505,NAVTEQ"},{"type":"Feature","properties":{"name":"SIALKOT","parent":"22928320,NAVTEQ","officialNames":{"en":"SIALKOT"}},"geometry":{"type":"Point","coordinates":[74.55405,32.51922]},"id":"EM844420127,NAVTEQ"},{"type":"Feature","properties":{"name":"SUKKUR","parent":"22928320,NAVTEQ","officialNames":{"en":"SUKKUR"}},"geometry":{"type":"Point","coordinates":[68.81343,27.73848]},"id":"EM844442993,NAVTEQ"},{"type":"Feature","properties":{"name":"MINGAORA","parent":"22928320,NAVTEQ","officialNames":{"en":"MINGAORA"}},"geometry":{"type":"Point","coordinates":[72.43647,34.83809]},"id":"EM844408061,NAVTEQ"},{"type":"Feature","properties":{"name":"QUETTA","parent":"22928320,NAVTEQ","officialNames":{"en":"QUETTA"}},"geometry":{"type":"Point","coordinates":[67.00878,30.22104]},"id":"EM844403571,NAVTEQ"},{"type":"Feature","properties":{"name":"BAHAWALPUR","parent":"22928320,NAVTEQ","officialNames":{"en":"BAHAWALPUR"}},"geometry":{"type":"Point","coordinates":[71.68093,29.39633]},"id":"EM844388427,NAVTEQ"},{"type":"Feature","properties":{"name":"SHIKARPUR","parent":"22928320,NAVTEQ","officialNames":{"en":"SHIKARPUR"}},"geometry":{"type":"Point","coordinates":[68.64897,27.95646]},"id":"EM844389136,NAVTEQ"},{"type":"Feature","properties":{"name":"HAFIZABAD","parent":"22928320,NAVTEQ","officialNames":{"en":"HAFIZABAD"}},"geometry":{"type":"Point","coordinates":[73.68559,32.07221]},"id":"EM844413507,NAVTEQ"},{"type":"Feature","properties":{"name":"MANDI BUREWALA","parent":"22928320,NAVTEQ","officialNames":{"en":"MANDI BUREWALA"}},"geometry":{"type":"Point","coordinates":[72.67754,30.15677]},"id":"EM844418788,NAVTEQ"},{"type":"Feature","properties":{"name":"MUZAFFARGARH","parent":"22928320,NAVTEQ","officialNames":{"en":"MUZAFFARGARH"}},"geometry":{"type":"Point","coordinates":[71.19473,30.06053]},"id":"EM844387999,NAVTEQ"},{"type":"Feature","properties":{"name":"MULTAN","parent":"22928320,NAVTEQ","officialNames":{"en":"MULTAN"}},"geometry":{"type":"Point","coordinates":[71.44828,30.18621]},"id":"EM844412621,NAVTEQ"},{"type":"Feature","properties":{"name":"KHAIRPUR","parent":"22928320,NAVTEQ","officialNames":{"en":"KHAIRPUR"}},"geometry":{"type":"Point","coordinates":[68.74653,27.52059]},"id":"EM844406396,NAVTEQ"},{"type":"Feature","properties":{"name":"RAWALPINDI","parent":"22928320,NAVTEQ","officialNames":{"en":"RAWALPINDI"}},"geometry":{"type":"Point","coordinates":[73.04549,33.58874]},"id":"EM844430483,NAVTEQ"},{"type":"Feature","properties":{"name":"ISLAMABAD","parent":"22928320,NAVTEQ","officialNames":{"en":"ISLAMABAD"}},"geometry":{"type":"Point","coordinates":[73.07047,33.70768]},"id":"EM844399554,NAVTEQ"},{"type":"Feature","properties":{"name":"GOJRA","parent":"22928320,NAVTEQ","officialNames":{"en":"GOJRA"}},"geometry":{"type":"Point","coordinates":[73.33133,32.41812]},"id":"EM844423929,NAVTEQ"},{"type":"Feature","properties":{"name":"ABBOTTABAD","parent":"22928320,NAVTEQ","officialNames":{"en":"ABBOTTABAD"}},"geometry":{"type":"Point","coordinates":[73.20311,34.1508]},"id":"EM844422356,NAVTEQ"},{"type":"Feature","properties":{"name":"FAISALABAD","parent":"22928320,NAVTEQ","officialNames":{"en":"FAISALABAD"}},"geometry":{"type":"Point","coordinates":[73.09034,31.40412]},"id":"EM844397242,NAVTEQ"},{"type":"Feature","properties":{"name":"LARKANA","parent":"22928320,NAVTEQ","officialNames":{"en":"LARKANA"}},"geometry":{"type":"Point","coordinates":[68.21542,27.56675]},"id":"EM844419067,NAVTEQ"},{"type":"Feature","properties":{"name":"CHISHTIAN MANDI","parent":"22928320,NAVTEQ","officialNames":{"en":"CHISHTIAN MANDI"}},"geometry":{"type":"Point","coordinates":[72.85169,29.79425]},"id":"EM844439161,NAVTEQ"},{"type":"Feature","properties":{"name":"OKARA","parent":"22928320,NAVTEQ","officialNames":{"en":"OKARA"}},"geometry":{"type":"Point","coordinates":[73.44508,30.79967]},"id":"EM844437266,NAVTEQ"},{"type":"Feature","properties":{"name":"MIRPUR KHAS","parent":"22928320,NAVTEQ","officialNames":{"en":"MIRPUR KHAS"}},"geometry":{"type":"Point","coordinates":[69.01479,25.51147]},"id":"EM844395172,NAVTEQ"},{"type":"Feature","properties":{"name":"JACOBABAD","parent":"22928320,NAVTEQ","officialNames":{"en":"JACOBABAD"}},"geometry":{"type":"Point","coordinates":[68.4375,28.27749]},"id":"EM844445589,NAVTEQ"},{"type":"Feature","properties":{"name":"TANDO ADAM","parent":"22928320,NAVTEQ","officialNames":{"en":"TANDO ADAM"}},"geometry":{"type":"Point","coordinates":[68.66361,25.76812]},"id":"EM844397610,NAVTEQ"},{"type":"Feature","properties":{"name":"BAHAWALNAGAR","parent":"22928320,NAVTEQ","officialNames":{"en":"BAHAWALNAGAR"}},"geometry":{"type":"Point","coordinates":[73.25345,29.98742]},"id":"EM844432332,NAVTEQ"},{"type":"Feature","properties":{"name":"KHANEWAL","parent":"22928320,NAVTEQ","officialNames":{"en":"KHANEWAL"}},"geometry":{"type":"Point","coordinates":[71.94096,30.30769]},"id":"EM844419589,NAVTEQ"},{"type":"Feature","properties":{"name":"SARGODHA","parent":"22928320,NAVTEQ","officialNames":{"en":"SARGODHA"}},"geometry":{"type":"Point","coordinates":[72.66454,32.0852]},"id":"EM844445776,NAVTEQ"},{"type":"Feature","properties":{"name":"GUJRANWALA","parent":"22928320,NAVTEQ","officialNames":{"en":"GUJRANWALA"}},"geometry":{"type":"Point","coordinates":[74.1753,32.15632]},"id":"EM844417384,NAVTEQ"},{"type":"Feature","properties":{"name":"DERA GHAZI KHAN","parent":"22928320,NAVTEQ","officialNames":{"en":"DERA GHAZI KHAN"}},"geometry":{"type":"Point","coordinates":[70.63704,30.05159]},"id":"EM844442965,NAVTEQ"},{"type":"Feature","properties":{"name":"SHEKHUPURA","parent":"22928320,NAVTEQ","officialNames":{"en":"SHEKHUPURA"}},"geometry":{"type":"Point","coordinates":[73.98495,31.71474]},"id":"EM844402026,NAVTEQ"},{"type":"Feature","properties":{"name":"LAHORE","parent":"22928320,NAVTEQ","officialNames":{"en":"LAHORE"}},"geometry":{"type":"Point","coordinates":[74.30348,31.53945]},"id":"EM844425144,NAVTEQ"},{"type":"Feature","properties":{"name":"MURIDKE","parent":"22928320,NAVTEQ","officialNames":{"en":"MURIDKE"}},"geometry":{"type":"Point","coordinates":[73.85735,31.78807]},"id":"EM844421413,NAVTEQ"},{"type":"Feature","properties":{"name":"SADIQABAD","parent":"22928320,NAVTEQ","officialNames":{"en":"SADIQABAD"}},"geometry":{"type":"Point","coordinates":[70.09489,28.29384]},"id":"EM844437306,NAVTEQ"},{"type":"Feature","properties":{"name":"JHELUM","parent":"22928320,NAVTEQ","officialNames":{"en":"JHELUM"}},"geometry":{"type":"Point","coordinates":[73.72186,32.9224]},"id":"EM844440106,NAVTEQ"},{"type":"Feature","properties":{"name":"NAWABSHAH","parent":"22928320,NAVTEQ","officialNames":{"en":"NAWABSHAH"}},"geometry":{"type":"Point","coordinates":[68.40286,26.24027]},"id":"EM844436871,NAVTEQ"},{"type":"Feature","properties":{"name":"PAKPATTAN","parent":"22928320,NAVTEQ","officialNames":{"en":"PAKPATTAN"}},"geometry":{"type":"Point","coordinates":[73.39183,30.34375]},"id":"EM844424237,NAVTEQ"},{"type":"Feature","properties":{"name":"KHANPUR","parent":"22928320,NAVTEQ","officialNames":{"en":"KHANPUR"}},"geometry":{"type":"Point","coordinates":[67.70807,27.0293]},"id":"EM844406413,NAVTEQ"},{"type":"Feature","properties":{"name":"GUJRAT","parent":"22928320,NAVTEQ","officialNames":{"en":"GUJRAT"}},"geometry":{"type":"Point","coordinates":[74.08074,32.57228]},"id":"EM844389770,NAVTEQ"},{"type":"Feature","properties":{"name":"CHINIOT","parent":"22928320,NAVTEQ","officialNames":{"en":"CHINIOT"}},"geometry":{"type":"Point","coordinates":[72.9832,31.71776]},"id":"EM844442397,NAVTEQ"},{"type":"Feature","properties":{"name":"WAH","parent":"22928320,NAVTEQ","officialNames":{"en":"WAH"}},"geometry":{"type":"Point","coordinates":[72.75459,33.76859]},"id":"EM844426168,NAVTEQ"},{"type":"Feature","properties":{"name":"HYDERABAD","parent":"22928320,NAVTEQ","officialNames":{"en":"HYDERABAD"}},"geometry":{"type":"Point","coordinates":[68.35758,25.37977]},"id":"EM844427740,NAVTEQ"},{"type":"Feature","properties":{"name":"SAHIWAL","parent":"22928320,NAVTEQ","officialNames":{"en":"SAHIWAL"}},"geometry":{"type":"Point","coordinates":[72.37325,32.12189]},"id":"EM844413771,NAVTEQ"}]}