{"type":"FeatureCollection","features":[{"type":"Feature","properties":{"name":"Seixal","parent":"20320446,NAVTEQ","officialNames":{"pt":"Seixal"}},"geometry":{"type":"Point","coordinates":[-9.10727,38.64258]},"id":"C20457648,NAVTEQ"},{"type":"Feature","properties":{"name":"Madalena","parent":"23489571,NAVTEQ","officialNames":{"pt":"Madalena"}},"geometry":{"type":"Point","coordinates":[-28.52813,38.53451]},"id":"C23489588,NAVTEQ"},{"type":"Feature","properties":{"name":"Porto Santo","parent":"22910430,NAVTEQ","officialNames":{"pt":"Porto Santo"}},"geometry":{"type":"Point","coordinates":[-16.33493,33.06069]},"id":"C22913977,NAVTEQ"},{"type":"Feature","properties":{"name":"Vila Nova de Gaia","parent":"20320138,NAVTEQ","officialNames":{"pt":"Vila Nova de Gaia"}},"geometry":{"type":"Point","coordinates":[-8.61361,41.12911]},"id":"C20414840,NAVTEQ"},{"type":"Feature","properties":{"name":"Corvo","parent":"23489574,NAVTEQ","officialNames":{"pt":"Corvo"}},"geometry":{"type":"Point","coordinates":[-31.11288,39.67347]},"id":"C23543990,NAVTEQ"},{"type":"Feature","properties":{"name":"Vila Real","parent":"20321017,NAVTEQ","officialNames":{"pt":"Vila Real"}},"geometry":{"type":"Point","coordinates":[-7.74742,41.29576]},"id":"C20415328,NAVTEQ"},{"type":"Feature","properties":{"name":"Setúbal","parent":"20320456,NAVTEQ","officialNames":{"pt":"Setúbal","pl":"Setubal","da":"Setubal","ru":"Сетубал","it":"Setubal","el":"Σετουμπαλ"}},"geometry":{"type":"Point","coordinates":[-8.88793,38.52292]},"id":"C20407141,NAVTEQ"},{"type":"Feature","properties":{"name":"Sintra","parent":"20319601,NAVTEQ","officialNames":{"pt":"Sintra"}},"geometry":{"type":"Point","coordinates":[-9.38639,38.79668]},"id":"C20407143,NAVTEQ"},{"type":"Feature","properties":{"name":"Cascais","parent":"20319479,NAVTEQ","officialNames":{"pt":"Cascais"}},"geometry":{"type":"Point","coordinates":[-9.42039,38.69669]},"id":"C20319482,NAVTEQ"},{"type":"Feature","properties":{"name":"Velas (R.A.A.)","parent":"23489560,NAVTEQ","officialNames":{"pt":"Velas (R.A.A.)"}},"geometry":{"type":"Point","coordinates":[-28.20507,38.67969]},"id":"C23543734,NAVTEQ"},{"type":"Feature","properties":{"name":"Almada","parent":"20320387,NAVTEQ","officialNames":{"pt":"Almada"}},"geometry":{"type":"Point","coordinates":[-9.15775,38.67726]},"id":"C20320388,NAVTEQ"},{"type":"Feature","properties":{"name":"Vila Nova de Famalicão","parent":"20317907,NAVTEQ","officialNames":{"pt":"Vila Nova de Famalicão"}},"geometry":{"type":"Point","coordinates":[-8.51649,41.40599]},"id":"C20317955,NAVTEQ"},{"type":"Feature","properties":{"name":"Viseu","parent":"20321397,NAVTEQ","officialNames":{"pt":"Viseu","el":"Βιζεου","ru":"Визеу"}},"geometry":{"type":"Point","coordinates":[-7.91447,40.65691]},"id":"C20417731,NAVTEQ"},{"type":"Feature","properties":{"name":"Loures","parent":"20319540,NAVTEQ","officialNames":{"pt":"Loures"}},"geometry":{"type":"Point","coordinates":[-9.16737,38.83048]},"id":"C20319547,NAVTEQ"},{"type":"Feature","properties":{"name":"Porto","parent":"20320039,NAVTEQ","officialNames":{"el":"Πορτο","no":"Porto","hu":"Portó","pt":"Porto","sv":"Porto","ru":"Порто","es":"Oporto"}},"geometry":{"type":"Point","coordinates":[-8.61031,41.14945]},"id":"C20360054,NAVTEQ"},{"type":"Feature","properties":{"name":"Lisboa","parent":"20319486,NAVTEQ","officialNames":{"sk":"Lisabon","da":"Lissabon","it":"Lisbona","hu":"Lisszabon","cs":"Lisabon","de":"Lissabon","el":"Λισσαβωνα","fi":"Lissabon","pt":"Lisboa","pl":"Lizbona","fr":"Lisbonne","sv":"Lissabon","en":"Lisbon","ru":"Лисбоа","nl":"Lissabon"}},"geometry":{"type":"Point","coordinates":[-9.15021,38.72573]},"id":"C20360053,NAVTEQ"},{"type":"Feature","properties":{"name":"Matosinhos","parent":"20319947,NAVTEQ","officialNames":{"pt":"Matosinhos"}},"geometry":{"type":"Point","coordinates":[-8.68004,41.18542]},"id":"C20319953,NAVTEQ"},{"type":"Feature","properties":{"name":"Faro","parent":"20318845,NAVTEQ","officialNames":{"pt":"Faro","el":"Φαρο","ru":"Фаро"}},"geometry":{"type":"Point","coordinates":[-7.9345,37.01487]},"id":"C20401850,NAVTEQ"},{"type":"Feature","properties":{"name":"Gondomar","parent":"20319859,NAVTEQ","officialNames":{"pt":"Gondomar"}},"geometry":{"type":"Point","coordinates":[-8.53254,41.14116]},"id":"C20414732,NAVTEQ"},{"type":"Feature","properties":{"name":"Guimarães","parent":"20317763,NAVTEQ","officialNames":{"pt":"Guimarães"}},"geometry":{"type":"Point","coordinates":[-8.29424,41.44512]},"id":"C20417303,NAVTEQ"},{"type":"Feature","properties":{"name":"Évora","parent":"20318758,NAVTEQ","officialNames":{"pt":"Évora","pl":"Evora","da":"Evora","ru":"Эвора","it":"Evora","el":"Εβορα"}},"geometry":{"type":"Point","coordinates":[-7.9141,38.56874]},"id":"C20404516,NAVTEQ"},{"type":"Feature","properties":{"name":"Vila Franca de Xira","parent":"20319640,NAVTEQ","officialNames":{"pt":"Vila Franca de Xira"}},"geometry":{"type":"Point","coordinates":[-8.98985,38.95394]},"id":"C20319649,NAVTEQ"},{"type":"Feature","properties":{"name":"Viana do Castelo","parent":"20320711,NAVTEQ","officialNames":{"pt":"Viana do Castelo"}},"geometry":{"type":"Point","coordinates":[-8.82951,41.69527]},"id":"C20415339,NAVTEQ"},{"type":"Feature","properties":{"name":"Santa Cruz da Graciosa (R.A.A.)","parent":"23489570,NAVTEQ","officialNames":{"pt":"Santa Cruz da Graciosa (R.A.A.)"}},"geometry":{"type":"Point","coordinates":[-28.00465,39.08475]},"id":"C23536281,NAVTEQ"},{"type":"Feature","properties":{"name":"Angra do Heroísmo","parent":"23489562,NAVTEQ","officialNames":{"pt":"Angra do Heroísmo"}},"geometry":{"type":"Point","coordinates":[-27.22108,38.65583]},"id":"C23490001,NAVTEQ"},{"type":"Feature","properties":{"name":"Castelo Branco","parent":"20318334,NAVTEQ","officialNames":{"pt":"Castelo Branco"}},"geometry":{"type":"Point","coordinates":[-7.49288,39.82294]},"id":"C20318339,NAVTEQ"},{"type":"Feature","properties":{"name":"Oeiras","parent":"20319596,NAVTEQ","officialNames":{"pt":"Oeiras"}},"geometry":{"type":"Point","coordinates":[-9.30991,38.69295]},"id":"C20319599,NAVTEQ"},{"type":"Feature","properties":{"name":"Horta","parent":"23489565,NAVTEQ","officialNames":{"pt":"Horta"}},"geometry":{"type":"Point","coordinates":[-28.63282,38.52923]},"id":"C23489597,NAVTEQ"},{"type":"Feature","properties":{"name":"Santa Maria da Feira","parent":"20317256,NAVTEQ","officialNames":{"pt":"Santa Maria da Feira"}},"geometry":{"type":"Point","coordinates":[-8.54783,40.92645]},"id":"C20317262,NAVTEQ"},{"type":"Feature","properties":{"name":"Ponta Delgada","parent":"23489568,NAVTEQ","officialNames":{"pt":"Ponta Delgada"}},"geometry":{"type":"Point","coordinates":[-25.66857,37.73962]},"id":"C23489914,NAVTEQ"},{"type":"Feature","properties":{"name":"Coimbra","parent":"20318537,NAVTEQ","officialNames":{"pt":"Coimbra","el":"Κοϊμπρα","ru":"Коимбра"}},"geometry":{"type":"Point","coordinates":[-8.41634,40.21081]},"id":"C20415240,NAVTEQ"},{"type":"Feature","properties":{"name":"Santarém","parent":"20320282,NAVTEQ","officialNames":{"pt":"Santarém"}},"geometry":{"type":"Point","coordinates":[-8.68529,39.23782]},"id":"C20405270,NAVTEQ"},{"type":"Feature","properties":{"name":"Beja","parent":"20317398,NAVTEQ","officialNames":{"pt":"Beja","el":"Μπεζα","ru":"Бежа"}},"geometry":{"type":"Point","coordinates":[-7.86655,38.01871]},"id":"C20404069,NAVTEQ"},{"type":"Feature","properties":{"name":"Portalegre","parent":"20319746,NAVTEQ","officialNames":{"pt":"Portalegre"}},"geometry":{"type":"Point","coordinates":[-7.43047,39.29645]},"id":"C20404735,NAVTEQ"},{"type":"Feature","properties":{"name":"Guarda","parent":"20319045,NAVTEQ","officialNames":{"pt":"Guarda"}},"geometry":{"type":"Point","coordinates":[-7.26175,40.53989]},"id":"C20414729,NAVTEQ"},{"type":"Feature","properties":{"name":"Leiria","parent":"20319345,NAVTEQ","officialNames":{"pt":"Leiria"}},"geometry":{"type":"Point","coordinates":[-8.81196,39.74364]},"id":"C20319357,NAVTEQ"},{"type":"Feature","properties":{"name":"Amadora","parent":"20319652,NAVTEQ","officialNames":{"pt":"Amadora"}},"geometry":{"type":"Point","coordinates":[-9.23785,38.75931]},"id":"C20408233,NAVTEQ"},{"type":"Feature","properties":{"name":"Bragança","parent":"20318038,NAVTEQ","officialNames":{"pt":"Bragança"}},"geometry":{"type":"Point","coordinates":[-6.75814,41.80729]},"id":"C20414728,NAVTEQ"},{"type":"Feature","properties":{"name":"Aveiro","parent":"20317217,NAVTEQ","officialNames":{"pt":"Aveiro","el":"Αβεϊρο","ru":"Авейру"}},"geometry":{"type":"Point","coordinates":[-8.65441,40.6412]},"id":"C20415340,NAVTEQ"},{"type":"Feature","properties":{"name":"Braga","parent":"20317606,NAVTEQ","officialNames":{"pt":"Braga","el":"Μπραγκα","ru":"Брага"}},"geometry":{"type":"Point","coordinates":[-8.42913,41.55162]},"id":"C20415404,NAVTEQ"},{"type":"Feature","properties":{"name":"Santa Cruz das Flores","parent":"23489566,NAVTEQ","officialNames":{"pt":"Santa Cruz das Flores"}},"geometry":{"type":"Point","coordinates":[-31.12811,39.45218]},"id":"C23490047,NAVTEQ"},{"type":"Feature","properties":{"name":"Funchal","parent":"22921062,NAVTEQ","officialNames":{"pt":"Funchal"}},"geometry":{"type":"Point","coordinates":[-16.90891,32.64688]},"id":"C22913829,NAVTEQ"},{"type":"Feature","properties":{"name":"Odivelas","parent":"20426094,NAVTEQ","officialNames":{"pt":"Odivelas"}},"geometry":{"type":"Point","coordinates":[-9.17687,38.79129]},"id":"C20426095,NAVTEQ"},{"type":"Feature","properties":{"name":"Maia","parent":"20319898,NAVTEQ","officialNames":{"pt":"Maia"}},"geometry":{"type":"Point","coordinates":[-8.62384,41.2327]},"id":"C20319905,NAVTEQ"},{"type":"Feature","properties":{"name":"Barcelos","parent":"20317516,NAVTEQ","officialNames":{"pt":"Barcelos"}},"geometry":{"type":"Point","coordinates":[-8.6152,41.53449]},"id":"C20317530,NAVTEQ"},{"type":"Feature","properties":{"name":"Vila do Porto","parent":"23489558,NAVTEQ","officialNames":{"pt":"Vila do Porto"}},"geometry":{"type":"Point","coordinates":[-25.14162,36.95696]},"id":"C23490046,NAVTEQ"}]}