{"type":"FeatureCollection","features":[{"type":"Feature","properties":{"name":"Laško","parent":"20636975,NAVTEQ","officialNames":{"sl":"Laško"}},"geometry":{"type":"Point","coordinates":[15.23322,46.16883]},"id":"C22695079,NAVTEQ"},{"type":"Feature","properties":{"name":"Slovenj Gradec","parent":"20640078,NAVTEQ","officialNames":{"sl":"Slovenj Gradec"}},"geometry":{"type":"Point","coordinates":[15.0802,46.50616]},"id":"C22691348,NAVTEQ"},{"type":"Feature","properties":{"name":"Kranj","parent":"20636693,NAVTEQ","officialNames":{"sl":"Kranj"}},"geometry":{"type":"Point","coordinates":[14.35068,46.23364]},"id":"C22694303,NAVTEQ"},{"type":"Feature","properties":{"name":"Ruše","parent":"20639422,NAVTEQ","officialNames":{"sl":"Ruše"}},"geometry":{"type":"Point","coordinates":[15.51181,46.53888]},"id":"C22690944,NAVTEQ"},{"type":"Feature","properties":{"name":"Nova Gorica","parent":"20638247,NAVTEQ","officialNames":{"sl":"Nova Gorica"}},"geometry":{"type":"Point","coordinates":[13.6508,45.9594]},"id":"C22690128,NAVTEQ"},{"type":"Feature","properties":{"name":"Črnomelj","parent":"20635352,NAVTEQ","officialNames":{"sl":"Črnomelj"}},"geometry":{"type":"Point","coordinates":[15.19236,45.57012]},"id":"C22690099,NAVTEQ"},{"type":"Feature","properties":{"name":"Krško","parent":"20636787,NAVTEQ","officialNames":{"sl":"Krško"}},"geometry":{"type":"Point","coordinates":[15.49321,45.9589]},"id":"C22691005,NAVTEQ"},{"type":"Feature","properties":{"name":"Mozirje","parent":"20637972,NAVTEQ","officialNames":{"sl":"Mozirje"}},"geometry":{"type":"Point","coordinates":[14.96475,46.33803]},"id":"C22691975,NAVTEQ"},{"type":"Feature","properties":{"name":"Domžale","parent":"20635523,NAVTEQ","officialNames":{"sl":"Domžale"}},"geometry":{"type":"Point","coordinates":[14.59426,46.14091]},"id":"C22691187,NAVTEQ"},{"type":"Feature","properties":{"name":"Škofja Loka","parent":"20639951,NAVTEQ","officialNames":{"sl":"Škofja Loka"}},"geometry":{"type":"Point","coordinates":[14.32285,46.16888]},"id":"C22691555,NAVTEQ"},{"type":"Feature","properties":{"name":"Piran","parent":"20638791,NAVTEQ","officialNames":{"sl":"Piran"}},"geometry":{"type":"Point","coordinates":[13.57053,45.5231]},"id":"C22691244,NAVTEQ"},{"type":"Feature","properties":{"name":"Radlje ob Dravi","parent":"20639122,NAVTEQ","officialNames":{"sl":"Radlje ob Dravi"}},"geometry":{"type":"Point","coordinates":[15.22339,46.61467]},"id":"C22691802,NAVTEQ"},{"type":"Feature","properties":{"name":"Murska Sobota","parent":"20638095,NAVTEQ","officialNames":{"sl":"Murska Sobota"}},"geometry":{"type":"Point","coordinates":[16.16195,46.66106]},"id":"C22691943,NAVTEQ"},{"type":"Feature","properties":{"name":"Ajdovščina","parent":"20634912,NAVTEQ","officialNames":{"sl":"Ajdovščina"}},"geometry":{"type":"Point","coordinates":[13.89648,45.88744]},"id":"C22694764,NAVTEQ"},{"type":"Feature","properties":{"name":"Novo mesto","parent":"20638359,NAVTEQ","officialNames":{"sl":"Novo mesto"}},"geometry":{"type":"Point","coordinates":[15.17047,45.80238]},"id":"C22689950,NAVTEQ"},{"type":"Feature","properties":{"name":"Trebnje","parent":"20640674,NAVTEQ","officialNames":{"sl":"Trebnje"}},"geometry":{"type":"Point","coordinates":[15.00866,45.90788]},"id":"C22693387,NAVTEQ"},{"type":"Feature","properties":{"name":"Lenart","parent":"20637086,NAVTEQ","officialNames":{"sl":"Lenart"}},"geometry":{"type":"Point","coordinates":[15.82928,46.57609]},"id":"C22689895,NAVTEQ"},{"type":"Feature","properties":{"name":"Vrhnika","parent":"20641000,NAVTEQ","officialNames":{"sl":"Vrhnika"}},"geometry":{"type":"Point","coordinates":[14.29833,45.9662]},"id":"C22694973,NAVTEQ"},{"type":"Feature","properties":{"name":"Logatec","parent":"20637767,NAVTEQ","officialNames":{"sl":"Logatec"}},"geometry":{"type":"Point","coordinates":[14.21876,45.91599]},"id":"C22694061,NAVTEQ"},{"type":"Feature","properties":{"name":"Gornja Radgona","parent":"20635727,NAVTEQ","officialNames":{"sl":"Gornja Radgona"}},"geometry":{"type":"Point","coordinates":[15.99186,46.67736]},"id":"C22693914,NAVTEQ"},{"type":"Feature","properties":{"name":"Postojna","parent":"20638835,NAVTEQ","officialNames":{"sl":"Postojna"}},"geometry":{"type":"Point","coordinates":[14.21301,45.77471]},"id":"C22693849,NAVTEQ"},{"type":"Feature","properties":{"name":"Brežice","parent":"20634981,NAVTEQ","officialNames":{"sl":"Brežice"}},"geometry":{"type":"Point","coordinates":[15.59742,45.91207]},"id":"C22692238,NAVTEQ"},{"type":"Feature","properties":{"name":"Kočevje","parent":"20636387,NAVTEQ","officialNames":{"sl":"Kočevje"}},"geometry":{"type":"Point","coordinates":[14.86153,45.64276]},"id":"C22693882,NAVTEQ"},{"type":"Feature","properties":{"name":"Ilirska Bistrica","parent":"20636151,NAVTEQ","officialNames":{"sl":"Ilirska Bistrica"}},"geometry":{"type":"Point","coordinates":[14.24228,45.57052]},"id":"C22694188,NAVTEQ"},{"type":"Feature","properties":{"name":"Šmarje pri Jelšah","parent":"20640451,NAVTEQ","officialNames":{"sl":"Šmarje pri Jelšah"}},"geometry":{"type":"Point","coordinates":[15.51478,46.22922]},"id":"C22694629,NAVTEQ"},{"type":"Feature","properties":{"name":"Koper","parent":"20636551,NAVTEQ","officialNames":{"sl":"Koper","it":"Capodistria","ru":"Копер","el":"Κοπερ"}},"geometry":{"type":"Point","coordinates":[13.72665,45.54441]},"id":"C20636593,NAVTEQ"},{"type":"Feature","properties":{"name":"Ribnica","parent":"20639323,NAVTEQ","officialNames":{"sl":"Ribnica"}},"geometry":{"type":"Point","coordinates":[14.72712,45.74124]},"id":"C22690177,NAVTEQ"},{"type":"Feature","properties":{"name":"Celje","parent":"20635093,NAVTEQ","officialNames":{"sl":"Celje"}},"geometry":{"type":"Point","coordinates":[15.26936,46.23451]},"id":"C22694421,NAVTEQ"},{"type":"Feature","properties":{"name":"Velenje","parent":"20640959,NAVTEQ","officialNames":{"sl":"Velenje"}},"geometry":{"type":"Point","coordinates":[15.1135,46.35772]},"id":"C22692350,NAVTEQ"},{"type":"Feature","properties":{"name":"Radovljica","parent":"20639200,NAVTEQ","officialNames":{"sl":"Radovljica"}},"geometry":{"type":"Point","coordinates":[14.16828,46.34981]},"id":"C22692355,NAVTEQ"},{"type":"Feature","properties":{"name":"Maribor","parent":"20637814,NAVTEQ","officialNames":{"de":"Marburg","sl":"Maribor","ru":"Марибор","el":"Μαριμπορ"}},"geometry":{"type":"Point","coordinates":[15.65105,46.55858]},"id":"C20637828,NAVTEQ"},{"type":"Feature","properties":{"name":"Pesnica","parent":"20638719,NAVTEQ","officialNames":{"sl":"Pesnica"}},"geometry":{"type":"Point","coordinates":[15.673,46.61364]},"id":"C22689842,NAVTEQ"},{"type":"Feature","properties":{"name":"Lendava","parent":"20637185,NAVTEQ","officialNames":{"sl":"Lendava"}},"geometry":{"type":"Point","coordinates":[16.4531,46.56316]},"id":"C22692653,NAVTEQ"},{"type":"Feature","properties":{"name":"Hrastnik","parent":"20636060,NAVTEQ","officialNames":{"sl":"Hrastnik"}},"geometry":{"type":"Point","coordinates":[15.08436,46.14535]},"id":"C22695613,NAVTEQ"},{"type":"Feature","properties":{"name":"Litija","parent":"20637227,NAVTEQ","officialNames":{"sl":"Litija"}},"geometry":{"type":"Point","coordinates":[14.83536,46.05939]},"id":"C22694479,NAVTEQ"},{"type":"Feature","properties":{"name":"Jesenice","parent":"20636229,NAVTEQ","officialNames":{"sl":"Jesenice"}},"geometry":{"type":"Point","coordinates":[14.05642,46.43636]},"id":"C22695757,NAVTEQ"},{"type":"Feature","properties":{"name":"Ormož","parent":"20638636,NAVTEQ","officialNames":{"sl":"Ormož"}},"geometry":{"type":"Point","coordinates":[16.1506,46.4077]},"id":"C22694024,NAVTEQ"},{"type":"Feature","properties":{"name":"Dravograd","parent":"20635700,NAVTEQ","officialNames":{"sl":"Dravograd"}},"geometry":{"type":"Point","coordinates":[15.0252,46.58917]},"id":"C22691571,NAVTEQ"},{"type":"Feature","properties":{"name":"Trbovlje","parent":"20640654,NAVTEQ","officialNames":{"sl":"Trbovlje"}},"geometry":{"type":"Point","coordinates":[15.05447,46.15642]},"id":"C22694476,NAVTEQ"},{"type":"Feature","properties":{"name":"Sevnica","parent":"20639573,NAVTEQ","officialNames":{"sl":"Sevnica"}},"geometry":{"type":"Point","coordinates":[15.29883,46.0121]},"id":"C22692914,NAVTEQ"},{"type":"Feature","properties":{"name":"Cerknica","parent":"20635263,NAVTEQ","officialNames":{"sl":"Cerknica"}},"geometry":{"type":"Point","coordinates":[14.36524,45.79305]},"id":"C22691917,NAVTEQ"},{"type":"Feature","properties":{"name":"Šentjur","parent":"22689892,NAVTEQ","officialNames":{"sl":"Šentjur"}},"geometry":{"type":"Point","coordinates":[15.39887,46.21335]},"id":"C22691613,NAVTEQ"},{"type":"Feature","properties":{"name":"Metlika","parent":"20637884,NAVTEQ","officialNames":{"sl":"Metlika"}},"geometry":{"type":"Point","coordinates":[15.31728,45.64684]},"id":"C22690687,NAVTEQ"},{"type":"Feature","properties":{"name":"Slovenska Bistrica","parent":"20640125,NAVTEQ","officialNames":{"sl":"Slovenska Bistrica"}},"geometry":{"type":"Point","coordinates":[15.57227,46.39052]},"id":"C22692549,NAVTEQ"},{"type":"Feature","properties":{"name":"Zagorje ob Savi","parent":"20641024,NAVTEQ","officialNames":{"sl":"Zagorje ob Savi"}},"geometry":{"type":"Point","coordinates":[14.99555,46.13454]},"id":"C22693182,NAVTEQ"},{"type":"Feature","properties":{"name":"Ljutomer","parent":"20637709,NAVTEQ","officialNames":{"sl":"Ljutomer"}},"geometry":{"type":"Point","coordinates":[16.19501,46.51983]},"id":"C22691211,NAVTEQ"},{"type":"Feature","properties":{"name":"Kamnik","parent":"20636267,NAVTEQ","officialNames":{"sl":"Kamnik"}},"geometry":{"type":"Point","coordinates":[14.60671,46.22184]},"id":"C22689972,NAVTEQ"},{"type":"Feature","properties":{"name":"Ptuj","parent":"20639026,NAVTEQ","officialNames":{"sl":"Ptuj"}},"geometry":{"type":"Point","coordinates":[15.87791,46.4254]},"id":"C22690392,NAVTEQ"},{"type":"Feature","properties":{"name":"Sežana","parent":"20639810,NAVTEQ","officialNames":{"sl":"Sežana"}},"geometry":{"type":"Point","coordinates":[13.8654,45.70628]},"id":"C22690256,NAVTEQ"},{"type":"Feature","properties":{"name":"Tolmin","parent":"20640579,NAVTEQ","officialNames":{"sl":"Tolmin"}},"geometry":{"type":"Point","coordinates":[13.73252,46.18268]},"id":"C22691010,NAVTEQ"},{"type":"Feature","properties":{"name":"Ravne na Koroškem","parent":"20639286,NAVTEQ","officialNames":{"sl":"Ravne na Koroškem"}},"geometry":{"type":"Point","coordinates":[14.95614,46.54392]},"id":"C22693212,NAVTEQ"},{"type":"Feature","properties":{"name":"Slovenske Konjice","parent":"20640238,NAVTEQ","officialNames":{"sl":"Slovenske Konjice"}},"geometry":{"type":"Point","coordinates":[15.42529,46.34071]},"id":"C22695767,NAVTEQ"},{"type":"Feature","properties":{"name":"Idrija","parent":"20636113,NAVTEQ","officialNames":{"sl":"Idrija"}},"geometry":{"type":"Point","coordinates":[14.02879,46.00168]},"id":"C22693176,NAVTEQ"},{"type":"Feature","properties":{"name":"Tržič","parent":"20640898,NAVTEQ","officialNames":{"sl":"Tržič"}},"geometry":{"type":"Point","coordinates":[14.30753,46.36151]},"id":"C22692043,NAVTEQ"},{"type":"Feature","properties":{"name":"Žalec","parent":"20641169,NAVTEQ","officialNames":{"sl":"Žalec"}},"geometry":{"type":"Point","coordinates":[15.16909,46.2549]},"id":"C22692805,NAVTEQ"},{"type":"Feature","properties":{"name":"Grosuplje","parent":"20635857,NAVTEQ","officialNames":{"sl":"Grosuplje"}},"geometry":{"type":"Point","coordinates":[14.65855,45.95675]},"id":"C22695174,NAVTEQ"},{"type":"Feature","properties":{"name":"Ljubljana","parent":"20637495,NAVTEQ","officialNames":{"sl":"Ljubljana","de":"Laibach","sk":"Ľubľana","it":"Lubiana","el":"Λιουμπλιανα","pt":"Liubliana","pl":"Lublana","ru":"Любляна","es":"Liubliana","nl":"Laibach","cs":"Lublaň"}},"geometry":{"type":"Point","coordinates":[14.50306,46.05124]},"id":"C20637506,NAVTEQ"},{"type":"Feature","properties":{"name":"Izola","parent":"20636217,NAVTEQ","officialNames":{"sl":"Izola"}},"geometry":{"type":"Point","coordinates":[13.6649,45.53538]},"id":"C22695029,NAVTEQ"}]}