{"type":"FeatureCollection","features":[{"type":"Feature","properties":{"name":"Uppsala","parent":"20298642,NAVTEQ","officialNames":{"pt":"Upsala","sv":"Uppsala","ru":"Уппсала","el":"Ουψαλα","fi":"Upsala"}},"geometry":{"type":"Point","coordinates":[17.64405,59.85845]},"id":"C20298647,NAVTEQ"},{"type":"Feature","properties":{"name":"Luleå","parent":"20412856,NAVTEQ","officialNames":{"pl":"Lulea","sv":"Luleå","ru":"Лулео","it":"Lulea","el":"Λουλεα","fi":"Luulaja"}},"geometry":{"type":"Point","coordinates":[22.15227,65.58389]},"id":"C20412865,NAVTEQ"},{"type":"Feature","properties":{"name":"Östersund","parent":"20382624,NAVTEQ","officialNames":{"pl":"Ostersund","sv":"Östersund","it":"Ostersund","ru":"Остерсунд","el":"Οστερσουντ"}},"geometry":{"type":"Point","coordinates":[14.63499,63.17934]},"id":"C20418401,NAVTEQ"},{"type":"Feature","properties":{"name":"Härnösand","parent":"20373307,NAVTEQ","officialNames":{"sv":"Härnösand"}},"geometry":{"type":"Point","coordinates":[17.93765,62.63353]},"id":"C20373554,NAVTEQ"},{"type":"Feature","properties":{"name":"Visby","parent":"20298799,NAVTEQ","officialNames":{"sv":"Visby"}},"geometry":{"type":"Point","coordinates":[18.30003,57.63842]},"id":"C20298803,NAVTEQ"},{"type":"Feature","properties":{"name":"Umeå","parent":"20411743,NAVTEQ","officialNames":{"pl":"Umea","sv":"Umeå","it":"Umea","ru":"Умео","el":"Ουμεα","fi":"Uumaja"}},"geometry":{"type":"Point","coordinates":[20.26078,63.82525]},"id":"C20411751,NAVTEQ"},{"type":"Feature","properties":{"name":"Göteborg","parent":"20298983,NAVTEQ","officialNames":{"it":"Goteborg","el":"Γκετεμποργκ","pl":"Goteborg","pt":"Gotemburgo","sv":"Göteborg","en":"Gothenburg","ru":"Гетеборг","es":"Gotemburgo"}},"geometry":{"type":"Point","coordinates":[11.9671,57.70123]},"id":"C20298984,NAVTEQ"},{"type":"Feature","properties":{"name":"Stockholm","parent":"20298488,NAVTEQ","officialNames":{"it":"Stoccolma","el":"Στοκχολμη","fi":"Tukholma","pl":"Sztokholm","pt":"Estocolmo","sv":"Stockholm","ru":"Стокгольм","es":"Estocolmo"}},"geometry":{"type":"Point","coordinates":[18.06284,59.33228]},"id":"C20365783,NAVTEQ"},{"type":"Feature","properties":{"name":"Malmö","parent":"20299264,NAVTEQ","officialNames":{"pl":"Malmo","sv":"Malmö","da":"Malmø","it":"Malmo","ru":"Мальмё","el":"Μαλμοε"}},"geometry":{"type":"Point","coordinates":[13.00156,55.59664]},"id":"C20299265,NAVTEQ"},{"type":"Feature","properties":{"name":"Halmstad","parent":"20299403,NAVTEQ","officialNames":{"sv":"Halmstad"}},"geometry":{"type":"Point","coordinates":[12.85752,56.67225]},"id":"C20299406,NAVTEQ"},{"type":"Feature","properties":{"name":"Falun","parent":"20366354,NAVTEQ","officialNames":{"el":"Φαλουν","sv":"Falun","ru":"Фалунские Медные Копи"}},"geometry":{"type":"Point","coordinates":[15.62892,60.60429]},"id":"C20366361,NAVTEQ"},{"type":"Feature","properties":{"name":"Helsingborg","parent":"20299277,NAVTEQ","officialNames":{"sv":"Helsingborg"}},"geometry":{"type":"Point","coordinates":[12.69587,56.04392]},"id":"C20299279,NAVTEQ"},{"type":"Feature","properties":{"name":"Nyköping","parent":"20298679,NAVTEQ","officialNames":{"sv":"Nyköping"}},"geometry":{"type":"Point","coordinates":[17.00923,58.75326]},"id":"C20298681,NAVTEQ"},{"type":"Feature","properties":{"name":"Jönköping","parent":"20298741,NAVTEQ","officialNames":{"pl":"Jonkoping","sv":"Jönköping","it":"Jonkoping","ru":"Йенчепинг","el":"Γιονκοπινγκ"}},"geometry":{"type":"Point","coordinates":[14.17648,57.77976]},"id":"C20299347,NAVTEQ"},{"type":"Feature","properties":{"name":"Norrköping","parent":"20298697,NAVTEQ","officialNames":{"pl":"Norrkoping","sv":"Norrköping","it":"Norrkoping","ru":"Норчепинг","el":"Νορκοπινγκ"}},"geometry":{"type":"Point","coordinates":[16.19246,58.58442]},"id":"C20298699,NAVTEQ"},{"type":"Feature","properties":{"name":"Västerås","parent":"20298897,NAVTEQ","officialNames":{"sv":"Västerås"}},"geometry":{"type":"Point","coordinates":[16.54535,59.60958]},"id":"C20298899,NAVTEQ"},{"type":"Feature","properties":{"name":"Linköping","parent":"20298715,NAVTEQ","officialNames":{"sv":"Linköping"}},"geometry":{"type":"Point","coordinates":[15.62565,58.41109]},"id":"C20298717,NAVTEQ"},{"type":"Feature","properties":{"name":"Örebro","parent":"20298848,NAVTEQ","officialNames":{"pl":"Orebro","sv":"Örebro","it":"Orebro","ru":"Эребру","el":"Ορεμπρο-Φορτια"}},"geometry":{"type":"Point","coordinates":[15.21751,59.27074]},"id":"C20298850,NAVTEQ"},{"type":"Feature","properties":{"name":"Karlstad","parent":"20366213,NAVTEQ","officialNames":{"de":"Karlstadt","sv":"Karlstad","ru":"Карлстад","el":"Καρλσταντ"}},"geometry":{"type":"Point","coordinates":[13.49942,59.37991]},"id":"C20366218,NAVTEQ"},{"type":"Feature","properties":{"name":"Gävle","parent":"20298919,NAVTEQ","officialNames":{"sv":"Gävle"}},"geometry":{"type":"Point","coordinates":[17.1456,60.67366]},"id":"C20371938,NAVTEQ"},{"type":"Feature","properties":{"name":"Karlskrona","parent":"20298830,NAVTEQ","officialNames":{"sv":"Karlskrona"}},"geometry":{"type":"Point","coordinates":[15.58384,56.16143]},"id":"C20298834,NAVTEQ"},{"type":"Feature","properties":{"name":"Kalmar","parent":"20298744,NAVTEQ","officialNames":{"el":"Καλμαρ","sv":"Kalmar","ru":"Кальмар"}},"geometry":{"type":"Point","coordinates":[16.36391,56.66612]},"id":"C20298747,NAVTEQ"},{"type":"Feature","properties":{"name":"Växjö","parent":"20367137,NAVTEQ","officialNames":{"pl":"Vaxjo","sv":"Växjö","ru":"Векшё","it":"Vaxjo","el":"Βεχιο"}},"geometry":{"type":"Point","coordinates":[14.79947,56.87996]},"id":"C20367148,NAVTEQ"}]}