{"type":"FeatureCollection","features":[{"type":"Feature","properties":{"name":"Menemen","parent":"22747125,NAVTEQ","officialNames":{"tr":"Menemen"}},"geometry":{"type":"Point","coordinates":[27.0702,38.60994]},"id":"C23424298,NAVTEQ"},{"type":"Feature","properties":{"name":"Çorlu","parent":"22746945,NAVTEQ","officialNames":{"tr":"Çorlu"}},"geometry":{"type":"Point","coordinates":[27.81258,41.15523]},"id":"C23736816,NAVTEQ"},{"type":"Feature","properties":{"name":"Rize","parent":"22748790,NAVTEQ","officialNames":{"fr":"Rize","da":"Rize","it":"Rize","ru":"Ризе","el":"Ριζουντα","tr":"Rize"}},"geometry":{"type":"Point","coordinates":[40.52571,41.02422]},"id":"C22748883,NAVTEQ"},{"type":"Feature","properties":{"name":"İzmir","parent":"22709441,NAVTEQ","officialNames":{"tr":"İzmir"}},"geometry":{"type":"Point","coordinates":[27.1423,38.42514]},"id":"C23431050,NAVTEQ"},{"type":"Feature","properties":{"name":"Ödemiş","parent":"22747125,NAVTEQ","officialNames":{"tr":"Ödemiş"}},"geometry":{"type":"Point","coordinates":[27.97224,38.21929]},"id":"C23889425,NAVTEQ"},{"type":"Feature","properties":{"name":"Kocasinan","parent":"22748050,NAVTEQ","officialNames":{"tr":"Kocasinan"}},"geometry":{"type":"Point","coordinates":[35.51344,38.7461]},"id":"C22748887,NAVTEQ"},{"type":"Feature","properties":{"name":"Kars","parent":"22747651,NAVTEQ","officialNames":{"tr":"Kars"}},"geometry":{"type":"Point","coordinates":[43.10126,40.60598]},"id":"C22746924,NAVTEQ"},{"type":"Feature","properties":{"name":"Gebze","parent":"22747422,NAVTEQ","officialNames":{"tr":"Gebze"}},"geometry":{"type":"Point","coordinates":[29.38577,40.77815]},"id":"C23311278,NAVTEQ"},{"type":"Feature","properties":{"name":"Akhisar","parent":"22749602,NAVTEQ","officialNames":{"tr":"Akhisar"}},"geometry":{"type":"Point","coordinates":[27.82685,38.91338]},"id":"C22747173,NAVTEQ"},{"type":"Feature","properties":{"name":"Kepez","parent":"22747456,NAVTEQ","officialNames":{"tr":"Kepez"}},"geometry":{"type":"Point","coordinates":[30.6503,36.93888]},"id":"C23790692,NAVTEQ"},{"type":"Feature","properties":{"name":"Ağrı","parent":"22747613,NAVTEQ","officialNames":{"tr":"Ağrı"}},"geometry":{"type":"Point","coordinates":[43.05267,39.73315]},"id":"C22748171,NAVTEQ"},{"type":"Feature","properties":{"name":"Gümüşhane","parent":"22747222,NAVTEQ","officialNames":{"da":"Gumushane","it":"Gumushane","tr":"Gümüşhane","pl":"Gumushane","fr":"Gumushane","ru":"Гюмюшхане","es":"Gümüshane"}},"geometry":{"type":"Point","coordinates":[39.48127,40.45884]},"id":"C22748415,NAVTEQ"},{"type":"Feature","properties":{"name":"İskenderun","parent":"22747172,NAVTEQ","officialNames":{"tr":"İskenderun"}},"geometry":{"type":"Point","coordinates":[36.16854,36.58313]},"id":"C22748371,NAVTEQ"},{"type":"Feature","properties":{"name":"İstanbul","parent":"22709441,NAVTEQ","officialNames":{"en":"Istanbul","ru":"Стамбул","el":"Κωνσταντινουπολη","tr":"İstanbul"}},"geometry":{"type":"Point","coordinates":[28.98618,41.04085]},"id":"C23431048,NAVTEQ"},{"type":"Feature","properties":{"name":"Adana","parent":"22709441,NAVTEQ","officialNames":{"tr":"Adana"}},"geometry":{"type":"Point","coordinates":[35.32497,36.98538]},"id":"C23431049,NAVTEQ"},{"type":"Feature","properties":{"name":"Osmaniye","parent":"22748405,NAVTEQ","officialNames":{"fr":"Osmaniye","da":"Osmaniye","ru":"Османие","it":"Osmaniye","el":"Οσμανιγε","tr":"Osmaniye"}},"geometry":{"type":"Point","coordinates":[36.24893,37.07257]},"id":"C22748231,NAVTEQ"},{"type":"Feature","properties":{"name":"Bahçelievler","parent":"22748378,NAVTEQ","officialNames":{"tr":"Bahçelievler"}},"geometry":{"type":"Point","coordinates":[28.86692,41.00538]},"id":"C23438317,NAVTEQ"},{"type":"Feature","properties":{"name":"Bandırma","parent":"22747007,NAVTEQ","officialNames":{"tr":"Bandırma"}},"geometry":{"type":"Point","coordinates":[27.99373,40.33482]},"id":"C23369221,NAVTEQ"},{"type":"Feature","properties":{"name":"Nusaybin","parent":"22749582,NAVTEQ","officialNames":{"tr":"Nusaybin"}},"geometry":{"type":"Point","coordinates":[41.21172,37.09064]},"id":"C23414758,NAVTEQ"},{"type":"Feature","properties":{"name":"Ereğli","parent":"22748085,NAVTEQ","officialNames":{"tr":"Ereğli"}},"geometry":{"type":"Point","coordinates":[31.43349,41.26959]},"id":"C23414755,NAVTEQ"},{"type":"Feature","properties":{"name":"Ankara","parent":"22709441,NAVTEQ","officialNames":{"el":"Αγκυρα","tr":"Ankara","ru":"Анкара"}},"geometry":{"type":"Point","coordinates":[32.86048,39.94293]},"id":"C23432573,NAVTEQ"},{"type":"Feature","properties":{"name":"Kızıltepe","parent":"22749582,NAVTEQ","officialNames":{"tr":"Kızıltepe"}},"geometry":{"type":"Point","coordinates":[40.56702,37.18223]},"id":"C23414656,NAVTEQ"},{"type":"Feature","properties":{"name":"Adıyaman","parent":"22748008,NAVTEQ","officialNames":{"tr":"Adıyaman"}},"geometry":{"type":"Point","coordinates":[38.27644,37.76057]},"id":"C22746910,NAVTEQ"},{"type":"Feature","properties":{"name":"Bursa","parent":"22709441,NAVTEQ","officialNames":{"tr":"Bursa"}},"geometry":{"type":"Point","coordinates":[29.05869,40.18435]},"id":"C23432575,NAVTEQ"},{"type":"Feature","properties":{"name":"Midyat","parent":"22749582,NAVTEQ","officialNames":{"tr":"Midyat"}},"geometry":{"type":"Point","coordinates":[41.34625,37.42357]},"id":"C23414655,NAVTEQ"},{"type":"Feature","properties":{"name":"Sivas","parent":"22748732,NAVTEQ","officialNames":{"fr":"Sivas","da":"Sivas","ru":"Сивас","it":"Sivas","el":"Σεβαστεια","tr":"Sivas"}},"geometry":{"type":"Point","coordinates":[37.01825,39.7501]},"id":"C22748993,NAVTEQ"},{"type":"Feature","properties":{"name":"Ümraniye","parent":"22748378,NAVTEQ","officialNames":{"tr":"Ümraniye"}},"geometry":{"type":"Point","coordinates":[29.13386,41.01793]},"id":"C23434067,NAVTEQ"},{"type":"Feature","properties":{"name":"Sincan","parent":"22749384,NAVTEQ","officialNames":{"tr":"Sincan"}},"geometry":{"type":"Point","coordinates":[32.57796,39.95877]},"id":"C23438267,NAVTEQ"},{"type":"Feature","properties":{"name":"Kırşehir","parent":"22748629,NAVTEQ","officialNames":{"tr":"Kırşehir"}},"geometry":{"type":"Point","coordinates":[34.1645,39.15616]},"id":"C23414653,NAVTEQ"},{"type":"Feature","properties":{"name":"Altındağ","parent":"22749384,NAVTEQ","officialNames":{"tr":"Altındağ"}},"geometry":{"type":"Point","coordinates":[32.90071,39.96167]},"id":"C23434068,NAVTEQ"},{"type":"Feature","properties":{"name":"Konya","parent":"22709441,NAVTEQ","officialNames":{"tr":"Konya"}},"geometry":{"type":"Point","coordinates":[32.51125,37.86739]},"id":"C23432578,NAVTEQ"},{"type":"Feature","properties":{"name":"Çiğli","parent":"22747125,NAVTEQ","officialNames":{"tr":"Çiğli"}},"geometry":{"type":"Point","coordinates":[27.05947,38.49345]},"id":"C23438268,NAVTEQ"},{"type":"Feature","properties":{"name":"Sultanbeyli","parent":"22748378,NAVTEQ","officialNames":{"tr":"Sultanbeyli"}},"geometry":{"type":"Point","coordinates":[29.27499,40.96413]},"id":"C23434077,NAVTEQ"},{"type":"Feature","properties":{"name":"Sakarya","parent":"22749693,NAVTEQ","officialNames":{"el":"Σακαρια","tr":"Sakarya","ru":"Сакарья"}},"geometry":{"type":"Point","coordinates":[30.37914,40.77343]},"id":"C22747183,NAVTEQ"},{"type":"Feature","properties":{"name":"Bayrampaşa","parent":"22748378,NAVTEQ","officialNames":{"tr":"Bayrampaşa"}},"geometry":{"type":"Point","coordinates":[28.91211,41.04381]},"id":"C23434076,NAVTEQ"},{"type":"Feature","properties":{"name":"Kartal","parent":"22748378,NAVTEQ","officialNames":{"tr":"Kartal"}},"geometry":{"type":"Point","coordinates":[29.21891,40.90531]},"id":"C23434075,NAVTEQ"},{"type":"Feature","properties":{"name":"Gaziosmanpaşa","parent":"22748378,NAVTEQ","officialNames":{"tr":"Gaziosmanpaşa"}},"geometry":{"type":"Point","coordinates":[28.8928,41.09764]},"id":"C23434074,NAVTEQ"},{"type":"Feature","properties":{"name":"Trabzon","parent":"22749673,NAVTEQ","officialNames":{"fr":"Trébizonde","ru":"Трабзон","it":"Trebisonda","el":"Τραπεζουντα","tr":"Trabzon"}},"geometry":{"type":"Point","coordinates":[39.71655,41.00129]},"id":"C22748368,NAVTEQ"},{"type":"Feature","properties":{"name":"Beykoz","parent":"22748378,NAVTEQ","officialNames":{"tr":"Beykoz"}},"geometry":{"type":"Point","coordinates":[29.21341,41.11041]},"id":"C23434072,NAVTEQ"},{"type":"Feature","properties":{"name":"Yalova","parent":"22748365,NAVTEQ","officialNames":{"tr":"Yalova"}},"geometry":{"type":"Point","coordinates":[29.29991,40.6588]},"id":"C22749412,NAVTEQ"},{"type":"Feature","properties":{"name":"Kağıthane","parent":"22748378,NAVTEQ","officialNames":{"tr":"Kağıthane"}},"geometry":{"type":"Point","coordinates":[28.97208,41.0799]},"id":"C23434070,NAVTEQ"},{"type":"Feature","properties":{"name":"Van","parent":"22749009,NAVTEQ","officialNames":{"el":"Βαν","tr":"Van","ru":"Ван"}},"geometry":{"type":"Point","coordinates":[43.37544,38.50821]},"id":"C22747180,NAVTEQ"},{"type":"Feature","properties":{"name":"Şanlıurfa","parent":"22747230,NAVTEQ","officialNames":{"da":"Sanliurfa","it":"Sanliurfa","el":"Σανλιουρφα","tr":"Şanlıurfa","pl":"Sanliurfa","ru":"Урфа","es":"Sanliurfa"}},"geometry":{"type":"Point","coordinates":[38.78536,37.1567]},"id":"C22749183,NAVTEQ"},{"type":"Feature","properties":{"name":"Isparta","parent":"22749380,NAVTEQ","officialNames":{"tr":"Isparta"}},"geometry":{"type":"Point","coordinates":[30.54394,37.78877]},"id":"C23090125,NAVTEQ"},{"type":"Feature","properties":{"name":"Kahramanmaraş","parent":"22747658,NAVTEQ","officialNames":{"pl":"Kahramanmaras","da":"Kahramanmaras","it":"Kahramanmaras","ru":"Кахраманмараш","el":"Καχρανμανμαρας","tr":"Kahramanmaraş"}},"geometry":{"type":"Point","coordinates":[36.92807,37.58583]},"id":"C22748227,NAVTEQ"},{"type":"Feature","properties":{"name":"Meram","parent":"22748108,NAVTEQ","officialNames":{"tr":"Meram"}},"geometry":{"type":"Point","coordinates":[32.45877,37.84695]},"id":"C22748429,NAVTEQ"},{"type":"Feature","properties":{"name":"Söke","parent":"22747888,NAVTEQ","officialNames":{"tr":"Söke"}},"geometry":{"type":"Point","coordinates":[27.41923,37.75864]},"id":"C23090129,NAVTEQ"},{"type":"Feature","properties":{"name":"Şehitkamil","parent":"22747560,NAVTEQ","officialNames":{"tr":"Şehitkamil"}},"geometry":{"type":"Point","coordinates":[37.35569,37.07219]},"id":"C22748362,NAVTEQ"},{"type":"Feature","properties":{"name":"Çanakkale","parent":"22747069,NAVTEQ","officialNames":{"pl":"Canakkale","da":"Canakkale","it":"Canakkale","ru":"Чанаккале","el":"Τσανακκαλε","tr":"Çanakkale"}},"geometry":{"type":"Point","coordinates":[26.40226,40.15041]},"id":"C22747564,NAVTEQ"},{"type":"Feature","properties":{"name":"Melikgazi","parent":"22748050,NAVTEQ","officialNames":{"tr":"Melikgazi"}},"geometry":{"type":"Point","coordinates":[35.52215,38.7284]},"id":"C23271989,NAVTEQ"},{"type":"Feature","properties":{"name":"Samandağ","parent":"22747172,NAVTEQ","officialNames":{"tr":"Samandağ"}},"geometry":{"type":"Point","coordinates":[35.98301,36.0841]},"id":"C23414628,NAVTEQ"},{"type":"Feature","properties":{"name":"Tekirdağ","parent":"22746945,NAVTEQ","officialNames":{"da":"Tekirdag","it":"Tekirdag","el":"Τεκιρνταγκ","tr":"Tekirdağ","hu":"Rodostó","pl":"Tekirdag","fr":"Tekirdag","ru":"Текирдаг"}},"geometry":{"type":"Point","coordinates":[27.51899,40.97828]},"id":"C22748754,NAVTEQ"},{"type":"Feature","properties":{"name":"Konak","parent":"22747125,NAVTEQ","officialNames":{"tr":"Konak"}},"geometry":{"type":"Point","coordinates":[27.13196,38.41975]},"id":"C23064247,NAVTEQ"},{"type":"Feature","properties":{"name":"Nazilli","parent":"22747888,NAVTEQ","officialNames":{"tr":"Nazilli"}},"geometry":{"type":"Point","coordinates":[28.32443,37.91046]},"id":"C22748546,NAVTEQ"},{"type":"Feature","properties":{"name":"Karabük","parent":"22748389,NAVTEQ","officialNames":{"tr":"Karabük"}},"geometry":{"type":"Point","coordinates":[32.61676,41.19438]},"id":"C22747875,NAVTEQ"},{"type":"Feature","properties":{"name":"Yıldırım","parent":"22747767,NAVTEQ","officialNames":{"tr":"Yıldırım"}},"geometry":{"type":"Point","coordinates":[29.08123,40.18766]},"id":"C22879923,NAVTEQ"},{"type":"Feature","properties":{"name":"Kütahya","parent":"22747165,NAVTEQ","officialNames":{"tr":"Kütahya"}},"geometry":{"type":"Point","coordinates":[29.98476,39.42042]},"id":"C22747675,NAVTEQ"},{"type":"Feature","properties":{"name":"Silivri","parent":"22748378,NAVTEQ","officialNames":{"tr":"Silivri"}},"geometry":{"type":"Point","coordinates":[28.04527,41.04827]},"id":"C22823639,NAVTEQ"},{"type":"Feature","properties":{"name":"Eskişehir","parent":"22747445,NAVTEQ","officialNames":{"da":"Eskisehir","it":"Eskisehir","el":"Εσκι Σεχιρ","tr":"Eskişehir","pl":"Eskisehir","fr":"Eskisehir","ru":"Эскишехир","es":"Eskisehir"}},"geometry":{"type":"Point","coordinates":[30.51547,39.77829]},"id":"C22747291,NAVTEQ"},{"type":"Feature","properties":{"name":"Bismil","parent":"22749640,NAVTEQ","officialNames":{"tr":"Bismil"}},"geometry":{"type":"Point","coordinates":[40.65892,37.84363]},"id":"C23414599,NAVTEQ"},{"type":"Feature","properties":{"name":"Bartın","parent":"22748442,NAVTEQ","officialNames":{"tr":"Bartın"}},"geometry":{"type":"Point","coordinates":[32.35079,41.63035]},"id":"C23414576,NAVTEQ"},{"type":"Feature","properties":{"name":"Elbistan","parent":"22747658,NAVTEQ","officialNames":{"tr":"Elbistan"}},"geometry":{"type":"Point","coordinates":[37.19063,38.19587]},"id":"C23912165,NAVTEQ"},{"type":"Feature","properties":{"name":"Çerkezköy","parent":"22746945,NAVTEQ","officialNames":{"tr":"Çerkezköy"}},"geometry":{"type":"Point","coordinates":[27.99927,41.28733]},"id":"C23748289,NAVTEQ"},{"type":"Feature","properties":{"name":"Çankırı","parent":"22748514,NAVTEQ","officialNames":{"tr":"Çankırı"}},"geometry":{"type":"Point","coordinates":[33.60692,40.56104]},"id":"C23414596,NAVTEQ"},{"type":"Feature","properties":{"name":"Edremit","parent":"22747007,NAVTEQ","officialNames":{"tr":"Edremit"}},"geometry":{"type":"Point","coordinates":[27.02074,39.58875]},"id":"C23064253,NAVTEQ"},{"type":"Feature","properties":{"name":"Turgutlu","parent":"22749602,NAVTEQ","officialNames":{"tr":"Turgutlu"}},"geometry":{"type":"Point","coordinates":[27.7031,38.49243]},"id":"C22747126,NAVTEQ"},{"type":"Feature","properties":{"name":"Aksaray","parent":"22747895,NAVTEQ","officialNames":{"el":"Αξεραϊ","tr":"Aksaray","ru":"Аксарай"}},"geometry":{"type":"Point","coordinates":[34.0279,38.36974]},"id":"C22748550,NAVTEQ"},{"type":"Feature","properties":{"name":"Çankaya","parent":"22749384,NAVTEQ","officialNames":{"tr":"Çankaya"}},"geometry":{"type":"Point","coordinates":[32.86092,39.89352]},"id":"C22746880,NAVTEQ"},{"type":"Feature","properties":{"name":"Şahinbey","parent":"22747560,NAVTEQ","officialNames":{"tr":"Şahinbey"}},"geometry":{"type":"Point","coordinates":[37.38804,37.05902]},"id":"C23271405,NAVTEQ"},{"type":"Feature","properties":{"name":"Siirt","parent":"22748653,NAVTEQ","officialNames":{"tr":"Siirt"}},"geometry":{"type":"Point","coordinates":[41.94304,37.92704]},"id":"C22747927,NAVTEQ"},{"type":"Feature","properties":{"name":"Amasya","parent":"22747554,NAVTEQ","officialNames":{"tr":"Amasya"}},"geometry":{"type":"Point","coordinates":[35.8135,40.64738]},"id":"C23414568,NAVTEQ"},{"type":"Feature","properties":{"name":"Karatay","parent":"22748108,NAVTEQ","officialNames":{"tr":"Karatay"}},"geometry":{"type":"Point","coordinates":[32.51125,37.86739]},"id":"C22748340,NAVTEQ"},{"type":"Feature","properties":{"name":"Denizli","parent":"22748631,NAVTEQ","officialNames":{"fr":"Denizli","da":"Denizli","ru":"Денизли","it":"Denizli","el":"Ντενιζλι","tr":"Denizli"}},"geometry":{"type":"Point","coordinates":[29.07888,37.78518]},"id":"C22748244,NAVTEQ"},{"type":"Feature","properties":{"name":"Kahta","parent":"22748008,NAVTEQ","officialNames":{"tr":"Kahta"}},"geometry":{"type":"Point","coordinates":[38.61505,37.78903]},"id":"C23414564,NAVTEQ"},{"type":"Feature","properties":{"name":"Osmangazi","parent":"22747767,NAVTEQ","officialNames":{"tr":"Osmangazi"}},"geometry":{"type":"Point","coordinates":[29.07481,40.22513]},"id":"C22749786,NAVTEQ"},{"type":"Feature","properties":{"name":"Bağcılar","parent":"22748378,NAVTEQ","officialNames":{"tr":"Bağcılar"}},"geometry":{"type":"Point","coordinates":[28.85137,41.04303]},"id":"C23434052,NAVTEQ"},{"type":"Feature","properties":{"name":"Kadirli","parent":"22748405,NAVTEQ","officialNames":{"tr":"Kadirli"}},"geometry":{"type":"Point","coordinates":[36.09946,37.37181]},"id":"C23785924,NAVTEQ"},{"type":"Feature","properties":{"name":"Yenimahalle","parent":"22749384,NAVTEQ","officialNames":{"tr":"Yenimahalle"}},"geometry":{"type":"Point","coordinates":[32.75351,39.9727]},"id":"C23434054,NAVTEQ"},{"type":"Feature","properties":{"name":"Eyüp","parent":"22748378,NAVTEQ","officialNames":{"tr":"Eyüp"}},"geometry":{"type":"Point","coordinates":[28.91363,41.15888]},"id":"C23434055,NAVTEQ"},{"type":"Feature","properties":{"name":"Buca","parent":"22747125,NAVTEQ","officialNames":{"tr":"Buca"}},"geometry":{"type":"Point","coordinates":[27.16384,38.3774]},"id":"C22747132,NAVTEQ"},{"type":"Feature","properties":{"name":"Üsküdar","parent":"22748378,NAVTEQ","officialNames":{"tr":"Üsküdar"}},"geometry":{"type":"Point","coordinates":[29.02711,41.0157]},"id":"C23434050,NAVTEQ"},{"type":"Feature","properties":{"name":"Erzurum","parent":"22747757,NAVTEQ","officialNames":{"el":"Ερζερουμ","tr":"Erzurum","ru":"Эрзурум"}},"geometry":{"type":"Point","coordinates":[41.28081,39.89866]},"id":"C22747704,NAVTEQ"},{"type":"Feature","properties":{"name":"Beşiktaş","parent":"22748378,NAVTEQ","officialNames":{"tr":"Beşiktaş"}},"geometry":{"type":"Point","coordinates":[29.02838,41.07649]},"id":"C23434051,NAVTEQ"},{"type":"Feature","properties":{"name":"Tarsus","parent":"22748183,NAVTEQ","officialNames":{"tr":"Tarsus"}},"geometry":{"type":"Point","coordinates":[34.89339,36.91465]},"id":"C22749525,NAVTEQ"},{"type":"Feature","properties":{"name":"Soma","parent":"22749602,NAVTEQ","officialNames":{"tr":"Soma"}},"geometry":{"type":"Point","coordinates":[27.59927,39.19127]},"id":"C22748272,NAVTEQ"},{"type":"Feature","properties":{"name":"Fethiye","parent":"22748262,NAVTEQ","officialNames":{"tr":"Fethiye"}},"geometry":{"type":"Point","coordinates":[29.12433,36.62695]},"id":"C22748733,NAVTEQ"},{"type":"Feature","properties":{"name":"Ardahan","parent":"22749259,NAVTEQ","officialNames":{"el":"Αρνταχαν","tr":"Ardahan","ru":"Ардахан"}},"geometry":{"type":"Point","coordinates":[42.70191,41.11287]},"id":"C22747507,NAVTEQ"},{"type":"Feature","properties":{"name":"Burdur","parent":"22749080,NAVTEQ","officialNames":{"el":"Μπουρντουρ","tr":"Burdur","ru":"Бурдур"}},"geometry":{"type":"Point","coordinates":[30.28237,37.71739]},"id":"C22749521,NAVTEQ"},{"type":"Feature","properties":{"name":"Torbalı","parent":"22747125,NAVTEQ","officialNames":{"tr":"Torbalı"}},"geometry":{"type":"Point","coordinates":[27.36748,38.14993]},"id":"C23885903,NAVTEQ"},{"type":"Feature","properties":{"name":"Samsun","parent":"22749035,NAVTEQ","officialNames":{"el":"Σαμψουντα","tr":"Samsun","ru":"Самсун"}},"geometry":{"type":"Point","coordinates":[36.33812,41.28157]},"id":"C22748659,NAVTEQ"},{"type":"Feature","properties":{"name":"Muğla","parent":"22748262,NAVTEQ","officialNames":{"da":"Mugla","it":"Mugla","el":"Μουγλα","tr":"Muğla","pl":"Mugla","ru":"Мугла","es":"Mugla"}},"geometry":{"type":"Point","coordinates":[28.36284,37.21567]},"id":"C22747788,NAVTEQ"},{"type":"Feature","properties":{"name":"Vezirköprü","parent":"22749035,NAVTEQ","officialNames":{"tr":"Vezirköprü"}},"geometry":{"type":"Point","coordinates":[35.46688,41.14654]},"id":"C23414706,NAVTEQ"},{"type":"Feature","properties":{"name":"Ergani","parent":"22749640,NAVTEQ","officialNames":{"tr":"Ergani"}},"geometry":{"type":"Point","coordinates":[39.75885,38.26469]},"id":"C23414600,NAVTEQ"},{"type":"Feature","properties":{"name":"Dörtyol","parent":"22747172,NAVTEQ","officialNames":{"tr":"Dörtyol"}},"geometry":{"type":"Point","coordinates":[36.22436,36.82399]},"id":"C22747478,NAVTEQ"},{"type":"Feature","properties":{"name":"Bafra","parent":"22749035,NAVTEQ","officialNames":{"tr":"Bafra"}},"geometry":{"type":"Point","coordinates":[35.92723,41.54835]},"id":"C23414708,NAVTEQ"},{"type":"Feature","properties":{"name":"Düzce","parent":"22748354,NAVTEQ","officialNames":{"tr":"Düzce"}},"geometry":{"type":"Point","coordinates":[31.16055,40.84623]},"id":"C22749790,NAVTEQ"},{"type":"Feature","properties":{"name":"Sarıyer","parent":"22748378,NAVTEQ","officialNames":{"tr":"Sarıyer"}},"geometry":{"type":"Point","coordinates":[29.03046,41.15562]},"id":"C23434049,NAVTEQ"},{"type":"Feature","properties":{"name":"Yüreğir","parent":"22748430,NAVTEQ","officialNames":{"tr":"Yüreğir"}},"geometry":{"type":"Point","coordinates":[35.35242,36.99715]},"id":"C22749659,NAVTEQ"},{"type":"Feature","properties":{"name":"Mamak","parent":"22749384,NAVTEQ","officialNames":{"tr":"Mamak"}},"geometry":{"type":"Point","coordinates":[32.9089,39.93597]},"id":"C23434046,NAVTEQ"},{"type":"Feature","properties":{"name":"Keçiören","parent":"22749384,NAVTEQ","officialNames":{"tr":"Keçiören"}},"geometry":{"type":"Point","coordinates":[32.8507,40.0]},"id":"C23434045,NAVTEQ"},{"type":"Feature","properties":{"name":"Küçükçekmece","parent":"22748378,NAVTEQ","officialNames":{"tr":"Küçükçekmece"}},"geometry":{"type":"Point","coordinates":[28.78477,41.06921]},"id":"C23434048,NAVTEQ"},{"type":"Feature","properties":{"name":"Yozgat","parent":"22749111,NAVTEQ","officialNames":{"tr":"Yozgat"}},"geometry":{"type":"Point","coordinates":[34.83607,39.82927]},"id":"C22749139,NAVTEQ"},{"type":"Feature","properties":{"name":"Bakırköy","parent":"22748378,NAVTEQ","officialNames":{"tr":"Bakırköy"}},"geometry":{"type":"Point","coordinates":[28.8028,40.97302]},"id":"C23434047,NAVTEQ"},{"type":"Feature","properties":{"name":"Maltepe","parent":"22748378,NAVTEQ","officialNames":{"tr":"Maltepe"}},"geometry":{"type":"Point","coordinates":[29.15081,40.94249]},"id":"C23434065,NAVTEQ"},{"type":"Feature","properties":{"name":"Bayburt","parent":"22747648,NAVTEQ","officialNames":{"el":"Μπαϊμπουρτ","tr":"Bayburt","ru":"Байбурт"}},"geometry":{"type":"Point","coordinates":[40.22343,40.25672]},"id":"C22747078,NAVTEQ"},{"type":"Feature","properties":{"name":"Beyoğlu","parent":"22748378,NAVTEQ","officialNames":{"tr":"Beyoğlu"}},"geometry":{"type":"Point","coordinates":[28.97443,41.03499]},"id":"C23434066,NAVTEQ"},{"type":"Feature","properties":{"name":"Erzincan","parent":"22747339,NAVTEQ","officialNames":{"fr":"Erzincan","da":"Erzincan","ru":"Эрзинджан","it":"Erzincan","el":"Ερζινκαν","tr":"Erzincan"}},"geometry":{"type":"Point","coordinates":[39.48226,39.74809]},"id":"C22748952,NAVTEQ"},{"type":"Feature","properties":{"name":"Lüleburgaz","parent":"22749465,NAVTEQ","officialNames":{"tr":"Lüleburgaz"}},"geometry":{"type":"Point","coordinates":[27.36511,41.40327]},"id":"C22747713,NAVTEQ"},{"type":"Feature","properties":{"name":"Giresun","parent":"22749334,NAVTEQ","officialNames":{"fr":"Giresun","da":"Giresun","ru":"Гиресун","it":"Giresun","el":"Κερασουντα","tr":"Giresun"}},"geometry":{"type":"Point","coordinates":[38.3846,40.91755]},"id":"C22748951,NAVTEQ"},{"type":"Feature","properties":{"name":"Pendik","parent":"22748378,NAVTEQ","officialNames":{"tr":"Pendik"}},"geometry":{"type":"Point","coordinates":[29.27103,40.89042]},"id":"C23434064,NAVTEQ"},{"type":"Feature","properties":{"name":"Kırıkkale","parent":"22749073,NAVTEQ","officialNames":{"el":"Κιρικκαλε","tr":"Kırıkkale","ru":"Кырыккале"}},"geometry":{"type":"Point","coordinates":[33.51242,39.8406]},"id":"C22749041,NAVTEQ"},{"type":"Feature","properties":{"name":"Fatih","parent":"22748378,NAVTEQ","officialNames":{"tr":"Fatih"}},"geometry":{"type":"Point","coordinates":[28.95019,41.00557]},"id":"C23434061,NAVTEQ"},{"type":"Feature","properties":{"name":"Çorum","parent":"22748230,NAVTEQ","officialNames":{"tr":"Çorum"}},"geometry":{"type":"Point","coordinates":[34.94523,40.55023]},"id":"C23324732,NAVTEQ"},{"type":"Feature","properties":{"name":"Etimesgut","parent":"22749384,NAVTEQ","officialNames":{"tr":"Etimesgut"}},"geometry":{"type":"Point","coordinates":[32.6486,39.94769]},"id":"C23434062,NAVTEQ"},{"type":"Feature","properties":{"name":"Tuzla","parent":"22748378,NAVTEQ","officialNames":{"tr":"Tuzla"}},"geometry":{"type":"Point","coordinates":[29.36302,40.89877]},"id":"C23434060,NAVTEQ"},{"type":"Feature","properties":{"name":"Diyarbakır","parent":"22749640,NAVTEQ","officialNames":{"fr":"Diyarbakir","da":"Diyarbakir","it":"Diyarbakir","ru":"Диярбакыр","el":"Ντιγιαρμπαρκιρ","tr":"Diyarbakır"}},"geometry":{"type":"Point","coordinates":[40.2107,37.92446]},"id":"C22747987,NAVTEQ"},{"type":"Feature","properties":{"name":"Batman","parent":"22748764,NAVTEQ","officialNames":{"el":"Μπατμαν","tr":"Batman","ru":"Батман"}},"geometry":{"type":"Point","coordinates":[41.11831,37.87905]},"id":"C22749853,NAVTEQ"},{"type":"Feature","properties":{"name":"Ereğli","parent":"22748108,NAVTEQ","officialNames":{"tr":"Ereğli"}},"geometry":{"type":"Point","coordinates":[34.04741,37.51548]},"id":"C23481150,NAVTEQ"},{"type":"Feature","properties":{"name":"Manisa","parent":"22749602,NAVTEQ","officialNames":{"fr":"Manisa","da":"Manisa","ru":"Маниса","it":"Manisa","el":"Μαγνησια","tr":"Manisa"}},"geometry":{"type":"Point","coordinates":[27.42696,38.61412]},"id":"C22747817,NAVTEQ"},{"type":"Feature","properties":{"name":"Nizip","parent":"22747560,NAVTEQ","officialNames":{"tr":"Nizip"}},"geometry":{"type":"Point","coordinates":[37.79308,37.00926]},"id":"C23891232,NAVTEQ"},{"type":"Feature","properties":{"name":"Muş","parent":"22748677,NAVTEQ","officialNames":{"tr":"Muş"}},"geometry":{"type":"Point","coordinates":[41.50275,38.75933]},"id":"C22746907,NAVTEQ"},{"type":"Feature","properties":{"name":"Bergama","parent":"22747125,NAVTEQ","officialNames":{"tr":"Bergama"}},"geometry":{"type":"Point","coordinates":[27.17372,39.10651]},"id":"C23551470,NAVTEQ"},{"type":"Feature","properties":{"name":"Elazığ","parent":"22747655,NAVTEQ","officialNames":{"da":"Elazig","it":"Elazig","el":"Ελαζιγ","tr":"Elazığ","pl":"Elazig","ru":"Элязыг","es":"Elazig"}},"geometry":{"type":"Point","coordinates":[39.23572,38.66781]},"id":"C22747996,NAVTEQ"},{"type":"Feature","properties":{"name":"Bingöl","parent":"22748651,NAVTEQ","officialNames":{"tr":"Bingöl"}},"geometry":{"type":"Point","coordinates":[40.50875,38.89733]},"id":"C22747904,NAVTEQ"},{"type":"Feature","properties":{"name":"Güngören","parent":"22748378,NAVTEQ","officialNames":{"tr":"Güngören"}},"geometry":{"type":"Point","coordinates":[28.87909,41.02277]},"id":"C23434056,NAVTEQ"},{"type":"Feature","properties":{"name":"Karşıyaka","parent":"22747125,NAVTEQ","officialNames":{"tr":"Karşıyaka"}},"geometry":{"type":"Point","coordinates":[27.13848,38.47271]},"id":"C22746986,NAVTEQ"},{"type":"Feature","properties":{"name":"Gaziantep","parent":"22709441,NAVTEQ","officialNames":{"tr":"Gaziantep"}},"geometry":{"type":"Point","coordinates":[37.37816,37.06293]},"id":"C23432610,NAVTEQ"},{"type":"Feature","properties":{"name":"Kayseri","parent":"22709441,NAVTEQ","officialNames":{"tr":"Kayseri"}},"geometry":{"type":"Point","coordinates":[35.4364,38.74504]},"id":"C23432611,NAVTEQ"},{"type":"Feature","properties":{"name":"Erciş","parent":"22749009,NAVTEQ","officialNames":{"tr":"Erciş"}},"geometry":{"type":"Point","coordinates":[43.36259,39.03501]},"id":"C23413019,NAVTEQ"},{"type":"Feature","properties":{"name":"Serik","parent":"22747456,NAVTEQ","officialNames":{"tr":"Serik"}},"geometry":{"type":"Point","coordinates":[31.09413,36.91962]},"id":"C22747251,NAVTEQ"},{"type":"Feature","properties":{"name":"Polatlı","parent":"22749384,NAVTEQ","officialNames":{"tr":"Polatlı"}},"geometry":{"type":"Point","coordinates":[32.14738,39.58458]},"id":"C23010811,NAVTEQ"},{"type":"Feature","properties":{"name":"Milas","parent":"22748262,NAVTEQ","officialNames":{"tr":"Milas"}},"geometry":{"type":"Point","coordinates":[27.78663,37.3194]},"id":"C22749085,NAVTEQ"},{"type":"Feature","properties":{"name":"Edirne","parent":"22748735,NAVTEQ","officialNames":{"fr":"Edirne","da":"Edirne","it":"Edirne","ru":"Эдирне","tr":"Edirne","hu":"Drinápoly"}},"geometry":{"type":"Point","coordinates":[26.55411,41.67702]},"id":"C22749543,NAVTEQ"},{"type":"Feature","properties":{"name":"Aydın","parent":"22747888,NAVTEQ","officialNames":{"ru":"Айдын","el":"Αϊδινιο","tr":"Aydın","es":"Aidin"}},"geometry":{"type":"Point","coordinates":[27.83244,37.84097]},"id":"C22748679,NAVTEQ"},{"type":"Feature","properties":{"name":"Kastamonu","parent":"22747734,NAVTEQ","officialNames":{"tr":"Kastamonu"}},"geometry":{"type":"Point","coordinates":[33.78021,41.382]},"id":"C23911798,NAVTEQ"},{"type":"Feature","properties":{"name":"Niğde","parent":"22748693,NAVTEQ","officialNames":{"tr":"Niğde"}},"geometry":{"type":"Point","coordinates":[34.69591,37.97283]},"id":"C22747062,NAVTEQ"},{"type":"Feature","properties":{"name":"Balıkesir","parent":"22747007,NAVTEQ","officialNames":{"fr":"Balikesir","da":"Balikesir","ru":"Балыкесир","it":"Balikesir","el":"Μπαλικεσιρ","tr":"Balıkesir"}},"geometry":{"type":"Point","coordinates":[27.88536,39.64488]},"id":"C22747259,NAVTEQ"},{"type":"Feature","properties":{"name":"Afyonkarahisar","parent":"22748757,NAVTEQ","officialNames":{"el":"Αφιονκαραχισαρ","tr":"Afyonkarahisar","ru":"Афьонкарахисар"}},"geometry":{"type":"Point","coordinates":[30.53826,38.75798]},"id":"C22747828,NAVTEQ"},{"type":"Feature","properties":{"name":"Malatya","parent":"22747268,NAVTEQ","officialNames":{"el":"Μαλατεια","tr":"Malatya","ru":"Малатья"}},"geometry":{"type":"Point","coordinates":[38.31952,38.34889]},"id":"C22748017,NAVTEQ"},{"type":"Feature","properties":{"name":"Sinop","parent":"22749826,NAVTEQ","officialNames":{"de":"Sinope","da":"Sinop","it":"Sinop","el":"Σινωπη","tr":"Sinop","fr":"Sinop","ru":"Синоп"}},"geometry":{"type":"Point","coordinates":[35.15064,42.02359]},"id":"C22747454,NAVTEQ"},{"type":"Feature","properties":{"name":"Antakya","parent":"22747172,NAVTEQ","officialNames":{"tr":"Antakya"}},"geometry":{"type":"Point","coordinates":[36.15518,36.19669]},"id":"C22747457,NAVTEQ"},{"type":"Feature","properties":{"name":"Bodrum","parent":"22748262,NAVTEQ","officialNames":{"tr":"Bodrum"}},"geometry":{"type":"Point","coordinates":[27.41895,37.03319]},"id":"C22748780,NAVTEQ"},{"type":"Feature","properties":{"name":"Gaziemir","parent":"22747125,NAVTEQ","officialNames":{"tr":"Gaziemir"}},"geometry":{"type":"Point","coordinates":[27.13343,38.32716]},"id":"C22749836,NAVTEQ"},{"type":"Feature","properties":{"name":"Selçuklu","parent":"22748108,NAVTEQ","officialNames":{"tr":"Selçuklu"}},"geometry":{"type":"Point","coordinates":[32.48255,37.90004]},"id":"C22748210,NAVTEQ"},{"type":"Feature","properties":{"name":"Salihli","parent":"22749602,NAVTEQ","officialNames":{"tr":"Salihli"}},"geometry":{"type":"Point","coordinates":[28.13783,38.48828]},"id":"C23065942,NAVTEQ"},{"type":"Feature","properties":{"name":"Doğubeyazıt","parent":"22747613,NAVTEQ","officialNames":{"tr":"Doğubeyazıt"}},"geometry":{"type":"Point","coordinates":[44.06419,39.5609]},"id":"C23414535,NAVTEQ"},{"type":"Feature","properties":{"name":"Şırnak","parent":"22747123,NAVTEQ","officialNames":{"tr":"Şırnak"}},"geometry":{"type":"Point","coordinates":[42.45826,37.51602]},"id":"C23414728,NAVTEQ"},{"type":"Feature","properties":{"name":"Kozan","parent":"22748430,NAVTEQ","officialNames":{"tr":"Kozan"}},"geometry":{"type":"Point","coordinates":[35.8261,37.46798]},"id":"C23414532,NAVTEQ"},{"type":"Feature","properties":{"name":"Gölcük","parent":"22747422,NAVTEQ","officialNames":{"tr":"Gölcük"}},"geometry":{"type":"Point","coordinates":[29.84241,40.71188]},"id":"C23551487,NAVTEQ"},{"type":"Feature","properties":{"name":"Ceyhan","parent":"22748430,NAVTEQ","officialNames":{"tr":"Ceyhan"}},"geometry":{"type":"Point","coordinates":[35.80878,37.05267]},"id":"C23414531,NAVTEQ"},{"type":"Feature","properties":{"name":"Silopi","parent":"22747123,NAVTEQ","officialNames":{"tr":"Silopi"}},"geometry":{"type":"Point","coordinates":[42.47052,37.24659]},"id":"C23414726,NAVTEQ"},{"type":"Feature","properties":{"name":"Nevşehir","parent":"22746909,NAVTEQ","officialNames":{"tr":"Nevşehir"}},"geometry":{"type":"Point","coordinates":[34.71109,38.63256]},"id":"C22748606,NAVTEQ"},{"type":"Feature","properties":{"name":"Cizre","parent":"22747123,NAVTEQ","officialNames":{"tr":"Cizre"}},"geometry":{"type":"Point","coordinates":[42.18905,37.33274]},"id":"C23414725,NAVTEQ"},{"type":"Feature","properties":{"name":"Körfez","parent":"22747422,NAVTEQ","officialNames":{"tr":"Körfez"}},"geometry":{"type":"Point","coordinates":[29.74574,40.77248]},"id":"C23491867,NAVTEQ"},{"type":"Feature","properties":{"name":"Siverek","parent":"22747230,NAVTEQ","officialNames":{"tr":"Siverek"}},"geometry":{"type":"Point","coordinates":[39.30627,37.75054]},"id":"C23414722,NAVTEQ"},{"type":"Feature","properties":{"name":"Muratpaşa","parent":"22747456,NAVTEQ","officialNames":{"tr":"Muratpaşa"}},"geometry":{"type":"Point","coordinates":[30.70284,36.9027]},"id":"C22880887,NAVTEQ"},{"type":"Feature","properties":{"name":"Viranşehir","parent":"22747230,NAVTEQ","officialNames":{"tr":"Viranşehir"}},"geometry":{"type":"Point","coordinates":[39.77198,37.22276]},"id":"C23414721,NAVTEQ"},{"type":"Feature","properties":{"name":"İnegöl","parent":"22747767,NAVTEQ","officialNames":{"tr":"İnegöl"}},"geometry":{"type":"Point","coordinates":[29.49288,40.08904]},"id":"C23010816,NAVTEQ"},{"type":"Feature","properties":{"name":"Patnos","parent":"22747613,NAVTEQ","officialNames":{"tr":"Patnos"}},"geometry":{"type":"Point","coordinates":[42.85573,39.23676]},"id":"C23414539,NAVTEQ"},{"type":"Feature","properties":{"name":"Nilüfer","parent":"22747767,NAVTEQ","officialNames":{"tr":"Nilüfer"}},"geometry":{"type":"Point","coordinates":[28.91419,40.22107]},"id":"C22747633,NAVTEQ"},{"type":"Feature","properties":{"name":"Bitlis","parent":"22747612,NAVTEQ","officialNames":{"tr":"Bitlis"}},"geometry":{"type":"Point","coordinates":[42.10813,38.39935]},"id":"C22749062,NAVTEQ"},{"type":"Feature","properties":{"name":"Büyükçekmece","parent":"22748378,NAVTEQ","officialNames":{"tr":"Büyükçekmece"}},"geometry":{"type":"Point","coordinates":[28.57732,41.02264]},"id":"C23434040,NAVTEQ"},{"type":"Feature","properties":{"name":"Mersin","parent":"22748183,NAVTEQ","officialNames":{"fr":"Mersin","da":"Mersin","ru":"Мерсин","it":"Mersin","el":"Μερσινη","tr":"Mersin"}},"geometry":{"type":"Point","coordinates":[34.60969,36.82153]},"id":"C22748490,NAVTEQ"},{"type":"Feature","properties":{"name":"Iğdır","parent":"22749830,NAVTEQ","officialNames":{"tr":"Iğdır"}},"geometry":{"type":"Point","coordinates":[44.05969,39.9074]},"id":"C22748106,NAVTEQ"},{"type":"Feature","properties":{"name":"Silifke","parent":"22748183,NAVTEQ","officialNames":{"tr":"Silifke"}},"geometry":{"type":"Point","coordinates":[33.92546,36.37664]},"id":"C23010801,NAVTEQ"},{"type":"Feature","properties":{"name":"Avcılar","parent":"22748378,NAVTEQ","officialNames":{"tr":"Avcılar"}},"geometry":{"type":"Point","coordinates":[28.71426,40.9969]},"id":"C23434043,NAVTEQ"},{"type":"Feature","properties":{"name":"Kadıköy","parent":"22748378,NAVTEQ","officialNames":{"tr":"Kadıköy"}},"geometry":{"type":"Point","coordinates":[29.07009,40.98604]},"id":"C23434044,NAVTEQ"},{"type":"Feature","properties":{"name":"Zeytinburnu","parent":"22748378,NAVTEQ","officialNames":{"tr":"Zeytinburnu"}},"geometry":{"type":"Point","coordinates":[28.90219,40.99465]},"id":"C23434041,NAVTEQ"},{"type":"Feature","properties":{"name":"Esenler","parent":"22748378,NAVTEQ","officialNames":{"tr":"Esenler"}},"geometry":{"type":"Point","coordinates":[28.87198,41.05208]},"id":"C23434042,NAVTEQ"},{"type":"Feature","properties":{"name":"Artvin","parent":"22749280,NAVTEQ","officialNames":{"fr":"Artvin","da":"Artvin","ru":"Артвин","it":"Artvin","el":"Αρτβιν","tr":"Artvin"}},"geometry":{"type":"Point","coordinates":[41.82138,41.18138]},"id":"C22749063,NAVTEQ"},{"type":"Feature","properties":{"name":"Uşak","parent":"22747407,NAVTEQ","officialNames":{"tr":"Uşak"}},"geometry":{"type":"Point","coordinates":[29.42176,38.67447]},"id":"C23065939,NAVTEQ"},{"type":"Feature","properties":{"name":"Bolu","parent":"22748464,NAVTEQ","officialNames":{"tr":"Bolu","ru":"Болу"}},"geometry":{"type":"Point","coordinates":[31.59887,40.73063]},"id":"C22747834,NAVTEQ"},{"type":"Feature","properties":{"name":"Kilis","parent":"22748123,NAVTEQ","officialNames":{"tr":"Kilis"}},"geometry":{"type":"Point","coordinates":[37.10096,36.7219]},"id":"C22749833,NAVTEQ"},{"type":"Feature","properties":{"name":"Bornova","parent":"22747125,NAVTEQ","officialNames":{"tr":"Bornova"}},"geometry":{"type":"Point","coordinates":[27.19677,38.45198]},"id":"C22748285,NAVTEQ"},{"type":"Feature","properties":{"name":"Karaman","parent":"22748772,NAVTEQ","officialNames":{"el":"Καραμαν","tr":"Karaman","ru":"Караман"}},"geometry":{"type":"Point","coordinates":[33.22335,37.18078]},"id":"C22749267,NAVTEQ"},{"type":"Feature","properties":{"name":"Mustafa Kemalpaşa","parent":"22747767,NAVTEQ","officialNames":{"tr":"Mustafa Kemalpaşa"}},"geometry":{"type":"Point","coordinates":[28.3984,40.03381]},"id":"C23738347,NAVTEQ"},{"type":"Feature","properties":{"name":"Çarşamba","parent":"22749035,NAVTEQ","officialNames":{"tr":"Çarşamba"}},"geometry":{"type":"Point","coordinates":[36.72232,41.20445]},"id":"C23349353,NAVTEQ"},{"type":"Feature","properties":{"name":"Bilecik","parent":"22747257,NAVTEQ","officialNames":{"tr":"Bilecik"}},"geometry":{"type":"Point","coordinates":[29.97735,40.16128]},"id":"C23738343,NAVTEQ"},{"type":"Feature","properties":{"name":"Erdemli","parent":"22748183,NAVTEQ","officialNames":{"tr":"Erdemli"}},"geometry":{"type":"Point","coordinates":[34.30963,36.60667]},"id":"C22749337,NAVTEQ"},{"type":"Feature","properties":{"name":"Çukurova","parent":"22748430,NAVTEQ","officialNames":{"tr":"Çukurova"}},"geometry":{"type":"Point","coordinates":[35.28363,37.04859]},"id":"C23714332,NAVTEQ"},{"type":"Feature","properties":{"name":"Zonguldak","parent":"22748085,NAVTEQ","officialNames":{"tr":"Zonguldak"}},"geometry":{"type":"Point","coordinates":[31.78495,41.45096]},"id":"C22749728,NAVTEQ"},{"type":"Feature","properties":{"name":"Kocaeli","parent":"22747422,NAVTEQ","officialNames":{"fr":"Kocaeli","da":"Kocaeli","it":"Kocaeli","ru":"Коджаэли","el":"Κοτζαελι","tr":"Kocaeli"}},"geometry":{"type":"Point","coordinates":[29.93458,40.76695]},"id":"C22747363,NAVTEQ"},{"type":"Feature","properties":{"name":"Tokat","parent":"22748397,NAVTEQ","officialNames":{"tr":"Tokat"}},"geometry":{"type":"Point","coordinates":[36.54945,40.32379]},"id":"C23414736,NAVTEQ"},{"type":"Feature","properties":{"name":"Mardin","parent":"22749582,NAVTEQ","officialNames":{"tr":"Mardin"}},"geometry":{"type":"Point","coordinates":[40.72019,37.32474]},"id":"C22748088,NAVTEQ"},{"type":"Feature","properties":{"name":"Manavgat","parent":"22747456,NAVTEQ","officialNames":{"tr":"Manavgat"}},"geometry":{"type":"Point","coordinates":[31.4514,36.78835]},"id":"C23010804,NAVTEQ"},{"type":"Feature","properties":{"name":"Sarıçam","parent":"22748430,NAVTEQ","officialNames":{"tr":"Sarıçam"}},"geometry":{"type":"Point","coordinates":[35.4199,37.03624]},"id":"C23714331,NAVTEQ"},{"type":"Feature","properties":{"name":"Seyhan","parent":"22748430,NAVTEQ","officialNames":{"tr":"Seyhan"}},"geometry":{"type":"Point","coordinates":[35.29488,37.00419]},"id":"C22749264,NAVTEQ"},{"type":"Feature","properties":{"name":"Alanya","parent":"22747456,NAVTEQ","officialNames":{"tr":"Alanya"}},"geometry":{"type":"Point","coordinates":[32.05848,36.52099]},"id":"C23010803,NAVTEQ"},{"type":"Feature","properties":{"name":"Şişli","parent":"22748378,NAVTEQ","officialNames":{"tr":"Şişli"}},"geometry":{"type":"Point","coordinates":[28.98888,41.06174]},"id":"C23434039,NAVTEQ"},{"type":"Feature","properties":{"name":"Antalya","parent":"22709441,NAVTEQ","officialNames":{"tr":"Antalya"}},"geometry":{"type":"Point","coordinates":[30.7092,36.87905]},"id":"C23898157,NAVTEQ"},{"type":"Feature","properties":{"name":"Kırıkhan","parent":"22747172,NAVTEQ","officialNames":{"tr":"Kırıkhan"}},"geometry":{"type":"Point","coordinates":[36.35177,36.49881]},"id":"C23788488,NAVTEQ"}]}