{"type":"FeatureCollection","features":[{"type":"Feature","properties":{"name":"NHA TRANG","parent":"22928359,NAVTEQ","officialNames":{"en":"NHA TRANG"}},"geometry":{"type":"Point","coordinates":[109.19197,12.2485]},"id":"EM844425637,NAVTEQ"},{"type":"Feature","properties":{"name":"BIEN HOA","parent":"22928359,NAVTEQ","officialNames":{"en":"BIEN HOA"}},"geometry":{"type":"Point","coordinates":[106.80922,10.9509]},"id":"EM844403531,NAVTEQ"},{"type":"Feature","properties":{"name":"CAN THO","parent":"22928359,NAVTEQ","officialNames":{"en":"CAN THO"}},"geometry":{"type":"Point","coordinates":[105.73349,10.07916]},"id":"EM844417779,NAVTEQ"},{"type":"Feature","properties":{"name":"LONG XUYEN","parent":"22928359,NAVTEQ","officialNames":{"en":"LONG XUYEN"}},"geometry":{"type":"Point","coordinates":[105.42664,10.39371]},"id":"EM844432951,NAVTEQ"},{"type":"Feature","properties":{"name":"HUE","parent":"22928359,NAVTEQ","officialNames":{"en":"HUE"}},"geometry":{"type":"Point","coordinates":[107.59324,16.45634]},"id":"EM844439568,NAVTEQ"},{"type":"Feature","properties":{"name":"HONG GAI","parent":"22928359,NAVTEQ","officialNames":{"en":"HONG GAI"}},"geometry":{"type":"Point","coordinates":[107.22652,21.00707]},"id":"EM844407605,NAVTEQ"},{"type":"Feature","properties":{"name":"NAM DINH","parent":"22928359,NAVTEQ","officialNames":{"en":"NAM DINH"}},"geometry":{"type":"Point","coordinates":[106.17147,20.42003]},"id":"EM844438093,NAVTEQ"},{"type":"Feature","properties":{"name":"DA NANG","parent":"22928359,NAVTEQ","officialNames":{"en":"DA NANG"}},"geometry":{"type":"Point","coordinates":[108.21478,16.04953]},"id":"EM844391363,NAVTEQ"},{"type":"Feature","properties":{"name":"DA LAT","parent":"22928359,NAVTEQ","officialNames":{"en":"DA LAT"}},"geometry":{"type":"Point","coordinates":[108.45846,11.85232]},"id":"EM844437510,NAVTEQ"},{"type":"Feature","properties":{"name":"RACH GIA","parent":"22928359,NAVTEQ","officialNames":{"en":"RACH GIA"}},"geometry":{"type":"Point","coordinates":[104.90216,10.19342]},"id":"EM844426925,NAVTEQ"},{"type":"Feature","properties":{"name":"HANOI","parent":"22928359,NAVTEQ","officialNames":{"en":"HANOI"}},"geometry":{"type":"Point","coordinates":[105.82696,21.0151]},"id":"EM844438655,NAVTEQ"},{"type":"Feature","properties":{"name":"BAN ME THUOT","parent":"22928359,NAVTEQ","officialNames":{"en":"BAN ME THUOT"}},"geometry":{"type":"Point","coordinates":[108.04259,12.67066]},"id":"EM844428611,NAVTEQ"},{"type":"Feature","properties":{"name":"HAI PHONG","parent":"22928359,NAVTEQ","officialNames":{"en":"HAI PHONG"}},"geometry":{"type":"Point","coordinates":[106.56095,20.93219]},"id":"EM844401399,NAVTEQ"},{"type":"Feature","properties":{"name":"VUNG TAU","parent":"22928359,NAVTEQ","officialNames":{"en":"VUNG TAU"}},"geometry":{"type":"Point","coordinates":[107.17394,10.47877]},"id":"EM844400986,NAVTEQ"},{"type":"Feature","properties":{"name":"PHAN THIET","parent":"22928359,NAVTEQ","officialNames":{"en":"PHAN THIET"}},"geometry":{"type":"Point","coordinates":[108.107,10.92438]},"id":"EM844405360,NAVTEQ"},{"type":"Feature","properties":{"name":"KHANH HUNG","parent":"22928359,NAVTEQ","officialNames":{"en":"KHANH HUNG"}},"geometry":{"type":"Point","coordinates":[105.92978,9.54775]},"id":"EM844433312,NAVTEQ"},{"type":"Feature","properties":{"name":"VINH","parent":"22928359,NAVTEQ","officialNames":{"en":"VINH"}},"geometry":{"type":"Point","coordinates":[105.58634,18.68306]},"id":"EM844428465,NAVTEQ"},{"type":"Feature","properties":{"name":"THANH HOA","parent":"22928359,NAVTEQ","officialNames":{"en":"THANH HOA"}},"geometry":{"type":"Point","coordinates":[105.78114,19.80906]},"id":"EM844426308,NAVTEQ"},{"type":"Feature","properties":{"name":"QUI NHON","parent":"22928359,NAVTEQ","officialNames":{"en":"QUI NHON"}},"geometry":{"type":"Point","coordinates":[109.22072,13.77824]},"id":"EM844398959,NAVTEQ"},{"type":"Feature","properties":{"name":"CA MAU","parent":"22928359,NAVTEQ","officialNames":{"en":"CA MAU"}},"geometry":{"type":"Point","coordinates":[105.30411,9.18737]},"id":"EM844415850,NAVTEQ"},{"type":"Feature","properties":{"name":"THAI NGUYEN","parent":"22928359,NAVTEQ","officialNames":{"en":"THAI NGUYEN"}},"geometry":{"type":"Point","coordinates":[105.82542,21.58478]},"id":"EM844418687,NAVTEQ"},{"type":"Feature","properties":{"name":"CAM PHA","parent":"22928359,NAVTEQ","officialNames":{"en":"CAM PHA"}},"geometry":{"type":"Point","coordinates":[107.22652,21.00707]},"id":"EM844409654,NAVTEQ"},{"type":"Feature","properties":{"name":"GO CONG","parent":"22928359,NAVTEQ","officialNames":{"en":"GO CONG"}},"geometry":{"type":"Point","coordinates":[106.65437,10.3126]},"id":"EM844414179,NAVTEQ"},{"type":"Feature","properties":{"name":"CAM LAM","parent":"22928359,NAVTEQ","officialNames":{"en":"CAM LAM"}},"geometry":{"type":"Point","coordinates":[109.07725,12.16449]},"id":"EM844387448,NAVTEQ"},{"type":"Feature","properties":{"name":"CAM RANH","parent":"22928359,NAVTEQ","officialNames":{"en":"CAM RANH"}},"geometry":{"type":"Point","coordinates":[109.12505,11.90175]},"id":"EM844437023,NAVTEQ"},{"type":"Feature","properties":{"name":"MY THO","parent":"22928359,NAVTEQ","officialNames":{"en":"MY THO"}},"geometry":{"type":"Point","coordinates":[106.3677,10.35317]},"id":"EM844401767,NAVTEQ"},{"type":"Feature","properties":{"name":"THANH PHO HO CHI MINH","parent":"22928359,NAVTEQ","officialNames":{"en":"THANH PHO HO CHI MINH"}},"geometry":{"type":"Point","coordinates":[106.68421,10.7491]},"id":"EM844441278,NAVTEQ"}]}