{"type":"FeatureCollection","features":[{"type":"Feature","properties":{"name":"Mashonaland West","parent":"23930425,NAVTEQ","officialNames":{"en":"Mashonaland West"}},"geometry":{"type":"Point","coordinates":[29.49376,-17.0171]},"id":"C23930416,NAVTEQ"},{"type":"Feature","properties":{"name":"Matebeleland North","parent":"23930427,NAVTEQ","officialNames":{"en":"Matebeleland North"}},"geometry":{"type":"Point","coordinates":[27.36748,-18.61115]},"id":"C23930413,NAVTEQ"},{"type":"Feature","properties":{"name":"Manicaland","parent":"23930426,NAVTEQ","officialNames":{"en":"Manicaland"}},"geometry":{"type":"Point","coordinates":[32.1538,-18.87844]},"id":"C23930412,NAVTEQ"},{"type":"Feature","properties":{"name":"Chitungwiza","parent":"23930463,NAVTEQ","officialNames":{"de":"Chitungwiza","fr":"Chitungwiza","en":"Chitungwiza","it":"Chitungwiza","es":"Chitungwiza","nl":"Chitungwiza"}},"geometry":{"type":"Point","coordinates":[31.05617,-18.02325]},"id":"C23930446,NAVTEQ"},{"type":"Feature","properties":{"name":"Bulawayo","parent":"23930418,NAVTEQ","officialNames":{"de":"Bulawayo","fr":"Bulawayo","en":"Bulawayo","it":"Bulawayo","es":"Bulawayo","nl":"Bulawayo"}},"geometry":{"type":"Point","coordinates":[28.58415,-20.1485]},"id":"C23930437,NAVTEQ"},{"type":"Feature","properties":{"name":"Gweru","parent":"23930419,NAVTEQ","officialNames":{"de":"Gweru","fr":"Gweru","en":"Gweru","it":"Gweru","es":"Gweru","nl":"Gweru"}},"geometry":{"type":"Point","coordinates":[29.81699,-19.45729]},"id":"C23930411,NAVTEQ"},{"type":"Feature","properties":{"name":"Mashonaland East","parent":"23930428,NAVTEQ","officialNames":{"en":"Mashonaland East"}},"geometry":{"type":"Point","coordinates":[31.76293,-17.90871]},"id":"C23930423,NAVTEQ"},{"type":"Feature","properties":{"name":"Mashonaland Central","parent":"23930421,NAVTEQ","officialNames":{"en":"Mashonaland Central"}},"geometry":{"type":"Point","coordinates":[31.60254,-16.6686]},"id":"C23930430,NAVTEQ"},{"type":"Feature","properties":{"name":"Harare","parent":"23930463,NAVTEQ","officialNames":{"de":"Harare","fr":"Harare","en":"Harare","it":"Harare","es":"Harare","nl":"Harare"}},"geometry":{"type":"Point","coordinates":[31.05078,-17.82486]},"id":"C23930441,NAVTEQ"},{"type":"Feature","properties":{"name":"Midlands","parent":"23930420,NAVTEQ","officialNames":{"en":"Midlands"}},"geometry":{"type":"Point","coordinates":[29.80548,-18.96837]},"id":"C23930419,NAVTEQ"},{"type":"Feature","properties":{"name":"Matebeleland South","parent":"23930424,NAVTEQ","officialNames":{"en":"Matebeleland South"}},"geometry":{"type":"Point","coordinates":[28.67098,-20.91452]},"id":"C23930417,NAVTEQ"},{"type":"Feature","properties":{"name":"Mutare","parent":"23930412,NAVTEQ","officialNames":{"de":"Mutare","fr":"Mutare","en":"Mutare","it":"Mutare","es":"Mutare","nl":"Mutare"}},"geometry":{"type":"Point","coordinates":[32.65973,-18.95762]},"id":"C23930452,NAVTEQ"}]}